POLITICAL_UNIT,NAME,WGMS_ID,GEN_LOCATION,SPEC_LOCATION,LATITUDE,LONGITUDE,PRIM_CLASSIFIC,FORM,FRONTAL_CHARS,EXPOS_ACC_AREA,EXPOS_ABL_AREA,PARENT_GLACIER,REMARKS,GLACIER_REGION_CODE,GLACIER_SUBREGION_CODE
AR,AGUA NEGRA,4532,DESERT ANDES,JACHAL BASIN,-30.1649,-69.8094,6,3,8,SE,SE,,,SAN,SAN-02
AR,ALERCE,1346,NORTHERN PATAGONIA,TRONADOR,-41.17,-71.82,5,3,4,E,SE,,,SAN,SAN-02
AR,ALFA,10453,CENTRAL ANDES,TUPUNGATO BASIN,-33.0769,-70.0649,6,3,6,NE,NE,,,SAN,SAN-02
AR,AMEGHINO,3800,PATAGONIAN ANDES,LAGO ARGENTINO,-50.455,-73.315,4,2,4,N,E,,,SAN,SAN-01
AR,AZUFRE,2851,CORDILLERA PRINCIPAL,PLANCHON-PETEROA,-35.29,-70.55,5,3,8,E,E,,,SAN,SAN-02
AR,BAJO DEL PLOMO,10455,CENTRAL ANDES,TUPUNGATO BASIN,-33.0117,-69.9658,5,1,7,SE,SW,,,SAN,SAN-02
AR,BETA,10454,CENTRAL ANDES,TUPUNGATO BASIN,-33.0875,-70.0567,6,0,6,NE,NE,,,SAN,SAN-02
AR,BONETE S,1348,,,-41.45,-71,6,4,6,S,S,,,SAN,SAN-02
AR,BROWN SUPERIOR,3903,CENTRAL ANDES,CORDILLERA DE COLANGUIL,-29.983,-69.642,6,3,8,E,NE,,"Data from Cabrera & Leiva (2013, subm.) Ann. Glaciol. 54 (63).",SAN,SAN-02
AR,CAMISA,3591,CENTRAL ANDES,TUNUYAN BASIN,-33.7714,-69.8657,5,2,9,S,SE,,,SAN,SAN-02
AR,CANITO,4529,CENTRAL ANDES,CORDILLERA FRONTAL,-29.3673,-70.0086,6,2,8,SE,SE,,Binational glacier (CL/AR) reported as a unit.,SAN,SAN-02
AR,CANON HISPANO,3592,CORDILLERA PRINCIPAL,VO. SAN JOSE,-33.4712,-69.5059,5,2,8,NE,NE,,,SAN,SAN-02
AR,CONCONTA NORTE,3902,CENTRAL ANDES,CORDILLERA DE COLANGUIL,-29.976,-69.645,6,3,8,E,E,,"Data from Cabrera & Leiva (2013, subm.) Ann. Glaciol. 54 (63).",SAN,SAN-02
AR,DE LOS TRES,1675,PATAGONIA,SANTA CRUZ BASIN,-49.33,-73,5,4,4,SE,SE,,Data from V. Popovnin.,SAN,SAN-01
AR,FRIAS,1347,NORTHERN PATAGONIA,TRONADOR,-41.15,-71.83,5,3,8,NE,E,,,SAN,SAN-02
AR,FRIAS,1661,PATAGONIA,S.PAT.ICEFIELD,-50.75,-75.08,4,2,8,E,E,,"Entry from former field AUTHORS: ""G. CASASSA, A. RIVERA""",SAN,SAN-01
AR,GRANDE DEL NEVADO DEL PLOMO,3304,CENTRAL ANDES,TUPUNGATO BASIN,-33.1208,-70.0331,5,2,7,E,NE,,Surging glacier.,SAN,SAN-02
AR,GUSSFELDT,2848,CORDILLERA FRONTAL,ACONCAGUA,-32.61,-70.03,5,2,6,E,E,,,SAN,SAN-02
AR,LAGO DEL DESIERTO I,3713,PATAGONIAN ANDES,LAGO DEL DESIERTO,-49.0532,-72.9137,6,3,8,SE,SE,,,SAN,SAN-01
AR,LAGO DEL DESIERTO II,3714,PATAGONIAN ANDES,LAGO DEL DESIERTO,-49.0613,-72.9234,6,3,8,SE,SE,,,SAN,SAN-01
AR,LAGO DEL DESIERTO III,3715,PATAGONIAN ANDES,LAGO DEL DESIERTO,-49.07,-72.93,6,3,8,SE,SE,,,SAN,SAN-01
AR,LOS AMARILLOS,3904,CENTRAL ANDES,CORDILLERA FRONTAL,-29.2963,-69.9954,6,3,8,SE,SE,,Data from Cabrera & Leiva (2008).,SAN,SAN-02
AR,MANSO,1345,NORTHERN PATAGONIA,TRONADOR,-41.18,-71.87,5,0,7,SE,SE,,,SAN,SAN-02
AR,MARMOLEJO,3590,CENTRAL ANDES,TUNUYAN BASIN,-33.7308,-69.8573,5,3,9,SE,SE,,,SAN,SAN-02
AR,MARTIAL ESTE,2000,ANDES FUEGUINOS,MONTES MARTIAL,-54.78,-68.4,6,4,6,SE,SE,917,J. Strelin: MARTIAL ESTE is one out of the four ice masses known as MARTIAL GLACIER.,SAN,SAN-01
AR,NARVAEZ GRANDE,3799,PATAGONIAN ANDES,SIERRA DE SANGRA,-48.4716,-72.3397,5,2,4,E,E,,,SAN,SAN-01
AR,PENON,2850,CORDILLERA PRINCIPAL,PLANCHON-PETEROA,-35.27,-70.56,5,2,5,E,NE,,,SAN,SAN-02
AR,PIEDRAS BLANCAS,3716,PATAGONIAN ANDES,CERRO FITZ ROY,-49.2624,-73.0116,5,3,4,E,E,,,SAN,SAN-01
AR,PILOTO ESTE,3589,ANDES CENTRALES,CORDILLERA PRINCIPAL,-32.5887,-70.1421,5,3,8,S,S,,A mass balance programme is run on this eastern tongue of Piloto Glacier.,SAN,SAN-02
AR,POTRERILLOS,4530,CENTRAL ANDES,CORDILLERA FRONTAL,-29.3896,-70.0102,6,3,8,SE,SE,,Binational glacier (CL/AR) reported as a unit.,SAN,SAN-02
AR,SALINILLAS,3594,CORDILLERA PRINCIPAL,VO. SAN JOSE,-33.5102,-69.5171,5,2,9,SE,SE,,,SAN,SAN-02
AR,SAN JOSE,3593,CENTRAL ANDES,TUNUYAN BASIN,-33.8211,-69.8762,5,2,9,SE,SE,,,SAN,SAN-02
AR,SAN LORENZO SUR,3798,PATAGONIAN ANDES,MONTE SAN LORENZO,-47.6334,-72.3034,5,2,4,SE,S,,,SAN,SAN-01
AR,TORRE,3717,PATAGONIAN ANDES,CERRO TORRE,-49.325,-73.07,1,3,4,E,E,,,SAN,SAN-01
AR,TORTOLAS,4531,CENTRAL ANDES,CORDILLERA FRONTAL,-29.9369,-69.8856,6,3,8,E,E,,,SAN,SAN-02
AR,TUPUNGATO,4528,ANDES CENTRAL,TUPUNGATO BASIN,-33.3509,-69.723,5,0,7,SE,NE,,,SAN,SAN-02
AR,TUPUNGATO 01,2852,ANDES CENTRAL,TUPUNGATO BASIN,-33.39,-69.75,5,0,7,SE,NE,4528,"The form corresponds to a single accumulation area with serveral terminus, in a tipical volcano morphology.",SAN,SAN-02
AR,TUPUNGATO 02,2853,ANDES CENTRAL,TUPUNGATO BASIN,-33.38,-69.75,5,0,7,SE,E,4528,"The form corresponds to a single accumulation area with serveral terminus, in a tipical volcano morphology.",SAN,SAN-02
AR,TUPUNGATO 03,2854,ANDES CENTRAL,TUPUNGATO BASIN,-33.36,-69.75,5,0,7,E,NE,4528,"The form corresponds to a single accumulation area with serveral terminus, in a tipical volcano morphology.",SAN,SAN-02
AR,TUPUNGATO 04,2855,ANDES CENTRAL,TUPUNGATO BASIN,-33.34,-69.75,5,0,7,NE,NE,4528,"The form corresponds to a single accumulation area with serveral terminus, in a tipical volcano morphology.",SAN,SAN-02
AR,VACAS,2849,CORDILLERA FRONTAL,ACONCAGUA,-32.55,-69.99,5,2,6,E,E,,Coordinates corrected according to GoogleEarth.,SAN,SAN-02
CH,ADLER,3801,WESTERN ALPS,RHONE BASIN,46.01,7.87,6,2,8,W,W,389,Disintegrated from Findelengletscher in the 1990s.,CEU,CEU-01
CH,BIRCH,1670,WESTERN ALPS,RHONE BASIN,46.4,7.85,6,5,0,NW,NW,,"Entry from former field AUTHORS: ""DR. M. HOELZLE"".Remarks from LAT/LON-Check: controlled and was not exact or clear, but not corrected; supposed to be called ""Baltschieder"".",CEU,CEU-01
CH,BODMER,1671,WESTERN ALPS,TESSIN BASIN,46.1742,8.0245,6,5,0,N,NE,,"Entry from former field AUTHORS: ""DR. M. HOELZLE"".Remarks from LAT/LON-Check: controlled and corrected with maps. Former LAT/LON: 46.08 / 8.25.",CEU,CEU-01
CH,CLARIDENFIRN,2660,WESTERN ALPS,LINTH BASIN,46.8464,8.9006,6,0,0,,,,,CEU,CEU-01
CH,DOLENT GL. DU,2673,,,45.92,7.65,6,4,4,E,E,,,CEU,CEU-01
CH,DUNGEL,1678,ALPS,BERNESE ALPS,46.37,7.37,6,0,0,NE,N,,Remarks from LAT/LON-Check: controlled and was okay.,CEU,CEU-01
CH,GELTEN,1679,ALPS,BERNESE ALPS,46.35,7.33,6,0,0,N,N,,Remarks from LAT/LON-Check: controlled and was okay.,CEU,CEU-01
CH,"MORTERATSCH, VADRET DA",1673,EASTERN ALPS,INN BASIN,46.4,9.93,5,1,9,N,N,,Remarks from LAT/LON-Check: controlled and was okay.,CEU,CEU-01
CH,"PERS, VADRET",10472,EASTERN ALPS,INN BASIN,46.4,9.96,6,1,8,N,NW,1673,,CEU,CEU-01
CH,SCALETTA,1680,ALPS,,46.7,9.95,6,5,0,N,N,,Remarks from LAT/LON-Check: controlled and was okay.,CEU,CEU-01
CH,SIRWOLTE,1672,WESTERN ALPS,TESSIN BASIN,46.2024,7.9963,6,4,0,NE,NE,,Alternative name: GRIESSERNUHORN N,CEU,CEU-01
CH,TURTMANN,5869,WESTERN ALPS,RHONE BASIN,46.143,7.699,5,1,8,NW,N,,,CEU,CEU-01
CL,AMALIA,1653,PATAGONIA,S.PAT.ICEFIELD,-50.95,-73.75,4,2,4,W,W,,"Entry from former field AUTHORS: ""G. CASASSA, A. RIVERA""",SAN,SAN-01
CL,AMARILLO,3905,CENTRAL ANDES,PASCUA LAMA BORDER PASS,-29.303,-70.001,6,3,8,SE,SE,,"Data from Cabrera & Leiva (2013, subm.) Ann. Glaciol. 54 (63).",SAN,SAN-02
CL,ARCO,1028,PATAGONIA,N.PAT.ICEFIELD,-47.28,-73.28,4,2,8,E,E,,,SAN,SAN-01
CL,ASIA,1652,PATAGONIA,S.PAT.ICEFIELD,-50.82,-73.73,4,2,4,W,W,,"Entry from former field AUTHORS: ""G. CASASSA, A. RIVERA""",SAN,SAN-01
CL,BALMACEDA,1657,PATAGONIA,S.PAT.ICEFIELD,-51.38,-73.3,4,2,4,E,E,,"Entry from former field AUTHORS: ""G. CASASSA, A. RIVERA""",SAN,SAN-01
CL,BENITO,1040,PATAGONIA,N.PAT.ICEFIELD,-47.03,-73.9,4,2,8,W,W,,,SAN,SAN-01
CL,BERNARDO,1634,PATAGONIA,S.PAT.ICEFIELD,-48.62,-73.93,4,2,4,W,W,,"Entry from former field AUTHORS: ""G. CASASSA, A. RIVERA""",SAN,SAN-01
CL,CACHET,1026,PATAGONIA,N.PAT.ICEFIELD,-47.1,-73.2,4,2,8,E,E,,,SAN,SAN-01
CL,CALVO,1650,PATAGONIA,S.PAT.ICEFIELD,-50.68,-73.35,4,2,4,W,W,,"Entry from former field AUTHORS: ""G. CASASSA, A. RIVERA""",SAN,SAN-01
CL,CHICO,2015,PATAGONIA,,-49,-73.07,4,2,4,N,N,,"C. ACUNA, G. CASASSA, A.RIVERA. CENTRO DE ESTUDIOS CIENTIFICOS, VALDIVIA, CHILE.",SAN,SAN-01
CL,CIPRESES,2008,CENTRAL ANDES,,-34.55,-70.37,6,2,5,W,W,,"C. ACUNA, G. CASASSA, A.RIVERA. CENTRO DE ESTUDIOS CIENTIFICOS, VALDIVIA, CHILE.",SAN,SAN-02
CL,COLONIA,1027,PATAGONIA,N.PAT.ICEFIELD,-47.25,-73.23,4,2,8,SE,SE,,,SAN,SAN-01
CL,DICKSON,1660,PATAGONIA,S.PAT.ICEFIELD,-50.78,-73.15,4,2,4,SE,SE,,"Entry from former field AUTHORS: ""G. CASASSA, A. RIVERA""",SAN,SAN-01
CL,ECHAURREN NORTE,1344,CENTRAL ANDES,,-33.5778,-70.1311,6,4,3,SW,SW,,,SAN,SAN-02
CL,EUROPA,1646,PATAGONIA,S.PAT.ICEFIELD,-50.3,-73.87,4,2,4,W,W,,"Entry from former field AUTHORS: ""G. CASASSA, A. RIVERA""",SAN,SAN-01
CL,EXPLORADORES,1011,PATAGONIA,N.PAT.ICEFIELD,-46.5,-73.17,4,2,9,NE,N,,,SAN,SAN-01
CL,FIERO,1021,PATAGONIA,N.PAT.ICEFIELD,-46.7,-73.2,4,2,4,E,SE,,,SAN,SAN-01
CL,G30,2005,CENTRAL ANDES,,-33.13,-70.13,6,3,0,S,S,,"C. ACUNA, G. CASASSA, A.RIVERA. CENTRO DE ESTUDIOS CIENTIFICOS, VALDIVIA, CHILE.",SAN,SAN-02
CL,G32,2006,CENTRAL ANDES,,-33.13,-70.12,6,3,0,S,S,,"C. ACUNA, G. CASASSA, A.RIVERA. CENTRO DE ESTUDIOS CIENTIFICOS, VALDIVIA, CHILE.",SAN,SAN-02
CL,GRAN CAMPO NEVADO (GCN),3444,SOUTHERN PATAGONIA,PENINSULA MUNOZ GAMERO,-52.8,-73.1,3,0,0,,,,"Schneider et al. (2007), Global and Planetary Change.",SAN,SAN-01
CL,GREVE,1637,PATAGONIA,S.PAT.ICEFIELD,-48.97,-73.92,4,2,4,NW,NW,,"Entry from former field AUTHORS: ""G. CASASSA, A. RIVERA""",SAN,SAN-01
CL,GREY,1659,PATAGONIA,S.PAT.ICEFIELD,-51.02,-73.2,4,2,4,SE,SE,,"Entry from former field AUTHORS: ""G. CASASSA, A. RIVERA""",SAN,SAN-01
CL,GROSSE,1044,PATAGONIA,N.PAT.ICEFIELD,-46.45,-73.3,4,2,9,N,NE,,,SAN,SAN-01
CL,GUALAS N-TONGUE,1019,PATAGONIA,N.PAT.ICEFIELD,-46.55,-73.67,4,2,9,NW,W,3583,,SAN,SAN-01
CL,GUALAS S-TONGUE,1020,PATAGONIA,N.PAT.ICEFIELD,-46.55,-73.67,4,2,9,NW,W,3583,,SAN,SAN-01
CL,GUANACO,3983,CENTRAL ANDES,,-29.34804,-70.01573,6,3,6,SE,SE,,"Glacier is located on the border between Chile and Argentina. Data from CECs, 2014.",SAN,SAN-02
CL,HPN 1,1039,PATAGONIA,N.PAT.ICEFIELD,-47.18,-73.87,4,2,8,W,W,,,SAN,SAN-01
CL,HPN 2,1038,PATAGONIA,N.PAT.ICEFIELD,-47.23,-73.9,4,2,8,NW,NW,33649,,SAN,SAN-01
CL,HPN 3,1037,PATAGONIA,N.PAT.ICEFIELD,-47.32,-73.92,4,2,8,NW,W,33649,,SAN,SAN-01
CL,HPN 4,1035,PATAGONIA,N.PAT.ICEFIELD,-47.45,-73.58,4,2,8,SE,SE,,,SAN,SAN-01
CL,HPS12,1640,PATAGONIA,S.PAT.ICEFIELD,-49.68,-73.75,4,2,4,SW,SW,,"Entry from former field AUTHORS: ""G. CASASSA, A. RIVERA""",SAN,SAN-01
CL,HPS13,1642,PATAGONIA,S.PAT.ICEFIELD,-49.72,-73.67,4,2,4,W,W,,"Entry from former field AUTHORS: ""G. CASASSA, A. RIVERA""",SAN,SAN-01
CL,HPS15,1643,PATAGONIA,S.PAT.ICEFIELD,-49.8,-73.7,4,2,4,NW,NW,,"Entry from former field AUTHORS: ""G. CASASSA, A. RIVERA""",SAN,SAN-01
CL,HPS19,1644,PATAGONIA,S.PAT.ICEFIELD,-50,-73.92,4,2,4,W,W,,"Entry from former field AUTHORS: ""G. CASASSA, A. RIVERA""",SAN,SAN-01
CL,HPS28,1648,PATAGONIA,S.PAT.ICEFIELD,-50.42,-73.58,4,2,4,W,W,,"Entry from former field AUTHORS: ""G. CASASSA, A. RIVERA""",SAN,SAN-01
CL,HPS29,1649,PATAGONIA,S.PAT.ICEFIELD,-50.47,-73.6,4,2,4,W,W,,"Entry from former field AUTHORS: ""G. CASASSA, A. RIVERA""",SAN,SAN-01
CL,HPS31,1647,PATAGONIA,S.PAT.ICEFIELD,-50.6,-73.55,4,2,4,SW,SW,,"Entry from former field AUTHORS: ""G. CASASSA, A. RIVERA""",SAN,SAN-01
CL,HPS34,1651,PATAGONIA,S.PAT.ICEFIELD,-50.72,-73.53,4,2,4,NW,NW,,"Entry from former field AUTHORS: ""G. CASASSA, A. RIVERA""",SAN,SAN-01
CL,HPS38,1654,PATAGONIA,S.PAT.ICEFIELD,-51.05,-73.75,4,2,4,W,W,,"Entry from former field AUTHORS: ""G. CASASSA, A. RIVERA""",SAN,SAN-01
CL,HPS41,1655,PATAGONIA,S.PAT.ICEFIELD,-51.3,-73.57,4,2,4,SW,SW,,"Entry from former field AUTHORS: ""G. CASASSA, A. RIVERA""",SAN,SAN-01
CL,HPS8,1638,PATAGONIA,S.PAT.ICEFIELD,-49,-73.67,4,2,4,SE,SE,,"DIRECCION GENERAL DE AGUAS MINISTERIO DE OBRAS PUBLICAS Ministerio de obras publicas, 2011. Variaciones recientes de glaciares en Chile, segun principales zonas glaciologicas. Santiago: Dirrecion General de Aguas.",SAN,SAN-01
CL,HPS9,1639,PATAGONIA,S.PAT.ICEFIELD,-49.05,-73.8,4,2,4,W,W,,"Entry from former field AUTHORS: ""G. CASASSA, A. RIVERA""",SAN,SAN-01
CL,JORGE MONTT,1016,PATAGONIA,S.PAT.ICEFIELD,-48.33,-73.5,4,2,8,N,N,,,SAN,SAN-01
CL,JUNCAL NORTE,2001,CENTRAL ANDES,,-33.03,-70.1,5,3,0,N,N,,"C. ACUNA, G. CASASSA, A.RIVERA. CENTRO DE ESTUDIOS CIENTIFICOS, VALDIVIA, CHILE.",SAN,SAN-02
CL,JUNCAL SUR,2002,CENTRAL ANDES,,-33.08,-70.1,5,1,0,S,S,,"C. ACUNA, G. CASASSA, A.RIVERA. CENTRO DE ESTUDIOS CIENTIFICOS, VALDIVIA, CHILE.",SAN,SAN-02
CL,LEONES,1022,PATAGONIA,N.PAT.ICEFIELD,-46.77,-73.22,4,2,4,NE,NE,,,SAN,SAN-01
CL,NEF,1024,PATAGONIA,N.PAT.ICEFIELD,-47.1,-73.18,4,2,8,SE,SE,,,SAN,SAN-01
CL,OCCIDENTAL,1636,PATAGONIA,S.PAT.ICEFIELD,-48.83,-74,4,2,4,W,W,3585,"DIRECCION GENERAL DE AGUAS MINISTERIO DE OBRAS PUBLICAS Ministerio de obras publicas, 2011. Variaciones recientes de glaciares en Chile, segun principales zonas glaciologicas. Santiago: Dirrecion General de Aguas",SAN,SAN-01
CL,OFHIDRO,1633,PATAGONIA,S.PAT.ICEFIELD,-48.42,-73.85,4,2,4,NW,NW,,"Entry from former field AUTHORS: ""G. CASASSA, A. RIVERA""",SAN,SAN-01
CL,O'HIGGINS,1015,PATAGONIA,S.PAT.ICEFIELD,-48.9067,-73.3474,4,2,4,E,NE,,,SAN,SAN-01
CL,OLIVARES BETA,2004,CENTRAL ANDES,,-33.13,-70.18,5,1,0,SW,SW,,"C. ACUNA, G. CASASSA, A.RIVERA. CENTRO DE ESTUDIOS CIENTIFICOS, VALDIVIA, CHILE.",SAN,SAN-02
CL,OLIVARES GAMA,2003,CENTRAL ANDES,,-33.13,-70.17,5,1,0,S,S,,"C. ACUNA, G. CASASSA, A.RIVERA. CENTRO DE ESTUDIOS CIENTIFICOS, VALDIVIA, CHILE.",SAN,SAN-02
CL,PARED NORTE,1030,PATAGONIA,N.PAT.ICEFIELD,-47.47,-73.25,4,2,8,E,SE,,,SAN,SAN-01
CL,PARED SUR,1031,PATAGONIA,N.PAT.ICEFIELD,-47.45,-73.33,4,2,9,SE,SE,,,SAN,SAN-01
CL,PENGUIN,1645,PATAGONIA,S.PAT.ICEFIELD,-50.08,-73.92,4,2,4,NW,NW,,,SAN,SAN-01
CL,PINGO,1658,PATAGONIA,S.PAT.ICEFIELD,-51.03,-73.35,4,2,4,SE,SE,,,SAN,SAN-01
CL,PIO XI (BRUEGGEN),1641,PATAGONIA,S.PAT.ICEFIELD,-49.22,-74,4,2,4,W,W,,The glacier tongues flows W and at the very end splits into two termini: one North and the other South.,SAN,SAN-01
CL,PISCIS,1032,PATAGONIA,N.PAT.ICEFIELD,-47.45,-73.42,4,2,8,SE,SE,,,SAN,SAN-01
CL,REICHER NE,1018,PATAGONIA,N.PAT.ICEFIELD,-46.48,-73.58,4,2,6,NW,W,3582,,SAN,SAN-01
CL,REICHER SW,1017,PATAGONIA,N.PAT.ICEFIELD,-46.48,-73.58,4,2,6,NW,W,3582,,SAN,SAN-01
CL,RISOPATRON,2007,CENTRAL ANDES,,-33.13,-70.08,5,1,0,W,W,,"C. ACUNA, G. CASASSA, A.RIVERA. CENTRO DE ESTUDIOS CIENTIFICOS, VALDIVIA, CHILE.",SAN,SAN-02
CL,SAN QUINTIN,1041,PATAGONIA,N.PAT.ICEFIELD,-46.87,-74.08,4,2,8,W,W,,,SAN,SAN-01
CL,SAN RAFAEL,1042,PATAGONIA,N.PAT.ICEFIELD,-46.68,-73.85,4,2,4,W,NW,,,SAN,SAN-01
CL,SNOWY,1656,PATAGONIA,S.PAT.ICEFIELD,-51.37,-73.57,4,2,4,W,W,,"Entry from former field AUTHORS: ""G. CASASSA, A. RIVERA""",SAN,SAN-01
CL,SOLER,1023,PATOGONIA,N.PAT.ICEFIELD,-46.9,-73.18,4,2,8,E,SE,,,SAN,SAN-01
CL,STEFFEN,1036,PATAGONIA,N.PAT.ICEFIELD,-47.53,-73.7,4,2,8,S,S,,,SAN,SAN-01
CL,TEMPANO,1635,PATAGONIA,S.PAT.ICEFIELD,-48.73,-74.05,4,2,4,W,W,3585,,SAN,SAN-01
CL,TRONQUITOS,1010,NORTHERN CHILE,RIO COPIAPO,-28.53,-69.72,6,4,8,SW,SW,,,SAN,SAN-02
CL,TYNDALL,1013,PATAGONIA,S.PAT.ICEFIELD,-51.17,-73.33,4,2,8,E,SE,,,SAN,SAN-01
CL,UNIVERSIDAD,2009,CENTRAL ANDES,,-34.7,-70.33,5,1,0,SW,SW,,"C. ACUNA, G. CASASSA, A.RIVERA. CENTRO DE ESTUDIOS CIENTIFICOS, VALDIVIA, CHILE.",SAN,SAN-02
CL,UNNAMED RC1,1043,PATAGONIA,N.PAT.ICEFIELD,-46.47,-73.38,4,2,8,NE,NE,,,SAN,SAN-01
CL,UNNAMED RC2,1034,PATAGONIA,N.PAT.ICEFIELD,-47.47,-73.52,4,2,8,SW,SW,,,SAN,SAN-01
CL,UNNAMED RC3,1033,PATAGONIA,N.PAT.ICEFIELD,-47.5,-73.48,4,2,8,S,S,,,SAN,SAN-01
CL,UNNAMED RC4,1029,PATAGONIA,N.PAT.ICEFIELD,-47.37,-73.3,4,2,8,E,E,,,SAN,SAN-01
CL,UNNAMED RC5,1025,PATAGONIA,N.PAT.ICEFIELD,-47.05,-73.32,4,2,8,NE,E,,,SAN,SAN-01
CL,UNNAMED RC6,1012,PATAGONIA,N.PAT.ICEFIELD,-46.65,-73.18,4,2,8,SE,SE,,,SAN,SAN-01
CN,KANGWURE,3694,HIMALAYA,MT XIXIABANGMA,28.45,85.75,5,3,6,NE,NE,,,ASE,ASE-01
CN,MUZTAG ATA (GLACIER NO. 15),3992,EASTERN PAMIR,MT.MUZTAGATA,38.2378,75.0633,6,4,6,W,W,,,ASC,ASC-02
CN,NINGCHAN GLACIER NO.1,10407,QILIAN SHAN,SHIYANGHE BASIN,37.517,101.838,6,3,8,N,NW,,,ASC,ASC-07
CN,PARLUNG NO. 94,3987,SOUTHEAST TIBETAN PLATEAU,MT. GANGRIGABU,29.3861,96.9756,5,2,8,NW,NW,,"Wei Yang et al. 2010, Chin.Sci.Bulletin, doi:10.1007/s11434-010-3214-4. Tandong Yao et al. 2010, Chin.Sci.Bulletin, doi:10.1007/s11434-010-3213-5. Tandong Yao et al. 2012, NCC, doi:10.1038/NCLIMATE1580. Wei Yang et al. 2013, JGR, doi:10.1002/jgrd.50760.",ASE,ASE-03
CN,URUMQI GLACIER NO. 1 E-BRANCH,1511,EASTERN TIANSHAN,URUMQI RIVER BASIN,43.111,86.811,5,3,8,NE,NE,853,"AT THE BEGINNING OF THE 1990S THE GLACIER SEPARATED INTO 2 BRANCHES: EAST- AND WEST BRANCH; Entry from former field AUTHORS: ""LIU SHIYIN""",ASC,ASC-04
CN,URUMQI GLACIER NO. 1 W-BRANCH,1512,EASTERN TIANSHAN,URUMQI RIVER BASIN,43.118,86.804,5,3,8,NE,NE,853,"AT THE BEGINNING OF THE 1990S THE GLACIER SEPARATED INTO 2 BRANCHES: EAST- AND WEST BRANCH; Entry from former field AUTHORS: ""LIU SHIYIN""",ASC,ASC-04
CN,XIAO DONGKZMADI,1510,TIBETAN PLATEAU,TANGGULA MTS.,33.17,92.13,5,3,8,S,SW,,"Entry from former field AUTHORS: ""LIU SHIYIN""",ASC,ASC-08
IN,ADI KAILASH,3051,UTTARANCHAL,RAMGANGA,30.3319,80.6394,5,3,1,NE,NE,,,ASE,ASE-01
IN,BATAL,7182,WESTERN HIMALAYA,LAHAUL SPITI,32.33961,77.56785,6,3,9,,,,,ASW,ASW-03
IN,BEAS KUND,3053,HIMACHAL PRADESH,BEAS,32.3447,77.0783,5,3,1,NE,NE,,,ASW,ASW-03
IN,BHAGIRATHI KHARAK,3050,UTTARANCHAL,VISHNUGANGA,30.7881,79.3,5,3,1,E,E,,,ASE,ASE-01
IN,CHANGMEKHANGPU,1045,HIMALAYA,TISTA BASIN,27.9599,88.6844,5,3,0,S,S,,,ASE,ASE-02
IN,CHHOTA SHIGRI,2921,WESTERN HIMALAYA,PIR PANJAL RANGE,32.2349,77.5157,5,1,9,N,N,,Any kind of exposition of the accumulation area.The glacier tongue has a thick debris cover and steep slopes.,ASW,ASW-03
IN,CHIPA,3048,UTTARANCHAL,DHAULIGANGA,30.1819,80.4958,5,3,1,E,E,,,ASE,ASE-01
IN,DUNAGIRI,1047,CHAMOLI U.P.,DHAULIGANGA,30.5578,79.8941,5,3,7,N,N,,,ASE,ASE-01
IN,GLACIER NO. 30,3052,HIMACHAL PRADESH,BEAS,32.26,77.3389,5,3,1,N,N,,,ASW,ASW-03
IN,HAMTAH,3044,HIMACHAL PRADESH,CHANDRA,32.2348,77.3738,5,3,0,NW,NW,,,ASW,ASW-03
IN,JHULANG (KHARSA),3046,UTTARANCHAL,DHAULIGANGA,30.3597,80.4042,5,3,1,NE,NE,,,ASE,ASE-01
IN,JOBRI,3054,HIMACHAL PRADESH,BEAS,32.2126,77.3579,5,3,1,NW,NW,,,ASW,ASW-03
IN,MEOLA,3047,UTTARANCHAL,DHAULIGANGA,30.2083,80.4583,5,3,2,E,E,,,ASE,ASE-01
IN,NARADU,10415,KINNAUR H.P.,BASPA VALLEY,31.29,78.405,5,2,9,NE,NE,,,ASW,ASW-03
IN,NIKARCHU,3049,UTTARANCHAL,KUTHIYANKTI,30.2875,80.6531,5,3,1,NE,NE,,,ASE,ASE-01
IN,PATSIO,7217,WESTERN HIMALAYA,LAHAUL SPITI,32.75671,77.32883,6,3,9,,,,,ASW,ASW-03
IN,PINDARI,3045,UTTARANCHAL,PINDAR,30.3014,80.0072,5,3,0,SE,S,,,ASE,ASE-01
IN,RGI50-14.11740,7013,WESTERN HIMALAYA,LAHAUL SPITI,31.76822,77.87905,6,3,9,,,,,ASW,ASW-03
IN,RGI50-14.11747,9688,WESTERN HIMALAYA,LAHAUL SPITI,31.79418,77.86648,6,3,9,,,,,ASW,ASW-03
IN,RGI50-14.11748,7170,WESTERN HIMALAYA,LAHAUL SPITI,31.7849,77.87952,6,2,9,,,,,ASW,ASW-03
IN,RGI50-14.11749,7263,WESTERN HIMALAYA,LAHAUL SPITI,31.93639,77.91699,6,3,9,,,,,ASW,ASW-03
IN,RGI50-14.11750,7303,WESTERN HIMALAYA,LAHAUL SPITI,31.95137,77.91018,6,3,9,,,,,ASW,ASW-03
IN,RGI50-14.11751,7230,WESTERN HIMALAYA,LAHAUL SPITI,31.9643,77.90182,6,3,9,,,,,ASW,ASW-03
IN,RGI50-14.11752,7239,WESTERN HIMALAYA,LAHAUL SPITI,31.97549,77.88953,6,3,9,,,,,ASW,ASW-03
IN,RGI50-14.11754,10092,WESTERN HIMALAYA,LAHAUL SPITI,31.93627,77.8334,6,3,9,,,,,ASW,ASW-03
IN,RGI50-14.11755,7212,WESTERN HIMALAYA,LAHAUL SPITI,31.92576,77.8278,6,3,9,,,,,ASW,ASW-03
IN,RGI50-14.11760,7132,WESTERN HIMALAYA,LAHAUL SPITI,31.90502,77.85964,6,2,9,,,,,ASW,ASW-03
IN,RGI50-14.11761,10137,WESTERN HIMALAYA,LAHAUL SPITI,31.87531,77.86884,6,3,9,,,,,ASW,ASW-03
IN,RGI50-14.11763,7304,WESTERN HIMALAYA,LAHAUL SPITI,31.8686,77.85157,6,3,9,,,,,ASW,ASW-03
IN,RGI50-14.11764,7231,WESTERN HIMALAYA,LAHAUL SPITI,31.85617,77.84947,6,3,9,,,,,ASW,ASW-03
IN,RGI50-14.11765,9839,WESTERN HIMALAYA,LAHAUL SPITI,31.82517,77.84671,6,3,9,,,,,ASW,ASW-03
IN,RGI50-14.11766,9666,WESTERN HIMALAYA,LAHAUL SPITI,31.81721,77.84911,6,3,9,,,,,ASW,ASW-03
IN,RGI50-14.11767,9862,WESTERN HIMALAYA,LAHAUL SPITI,31.81638,77.85573,6,3,9,,,,,ASW,ASW-03
IN,RGI50-14.11768,10174,WESTERN HIMALAYA,LAHAUL SPITI,31.8052,77.85136,6,3,9,,,,,ASW,ASW-03
IN,RGI50-14.11769,7336,WESTERN HIMALAYA,LAHAUL SPITI,31.80035,77.86034,6,3,9,,,,,ASW,ASW-03
IN,RGI50-14.11770,7200,WESTERN HIMALAYA,LAHAUL SPITI,31.75582,77.86144,6,3,9,,,,,ASW,ASW-03
IN,RGI50-14.11771,7117,WESTERN HIMALAYA,LAHAUL SPITI,31.77467,77.81084,6,2,9,,,,,ASW,ASW-03
IN,RGI50-14.11772,7345,WESTERN HIMALAYA,LAHAUL SPITI,31.78447,77.79006,6,3,9,,,,,ASW,ASW-03
IN,RGI50-14.11773,7283,WESTERN HIMALAYA,LAHAUL SPITI,31.7915,77.78249,6,3,9,,,,,ASW,ASW-03
IN,RGI50-14.11774,10016,WESTERN HIMALAYA,LAHAUL SPITI,31.80482,77.76559,6,3,9,,,,,ASW,ASW-03
IN,RGI50-14.11775,9522,WESTERN HIMALAYA,LAHAUL SPITI,31.75592,77.75383,6,3,9,,,,,ASW,ASW-03
IN,RGI50-14.11776,10206,WESTERN HIMALAYA,LAHAUL SPITI,31.76583,77.75191,6,3,9,,,,,ASW,ASW-03
IN,RGI50-14.11777,7355,WESTERN HIMALAYA,LAHAUL SPITI,31.74817,77.75848,6,3,9,,,,,ASW,ASW-03
IN,RGI50-14.11778,10111,WESTERN HIMALAYA,LAHAUL SPITI,31.74174,77.76042,6,3,9,,,,,ASW,ASW-03
IN,RGI50-14.11779,10053,WESTERN HIMALAYA,LAHAUL SPITI,31.68665,77.79479,6,3,9,,,,,ASW,ASW-03
IN,RGI50-14.11780,10012,WESTERN HIMALAYA,LAHAUL SPITI,31.6958,77.78842,6,3,9,,,,,ASW,ASW-03
IN,RGI50-14.11781,10180,WESTERN HIMALAYA,LAHAUL SPITI,31.70358,77.77626,6,3,9,,,,,ASW,ASW-03
IN,RGI50-14.11782,10097,WESTERN HIMALAYA,LAHAUL SPITI,31.7108,77.78479,6,3,9,,,,,ASW,ASW-03
IN,RGI50-14.11783,9504,WESTERN HIMALAYA,LAHAUL SPITI,31.69472,77.74522,6,3,9,,,,,ASW,ASW-03
IN,RGI50-14.11784,7103,WESTERN HIMALAYA,LAHAUL SPITI,31.7109,77.69077,6,3,9,,,,,ASW,ASW-03
IN,RGI50-14.11785,9485,WESTERN HIMALAYA,LAHAUL SPITI,31.69735,77.70629,6,3,9,,,,,ASW,ASW-03
IN,RGI50-14.11786,7320,WESTERN HIMALAYA,LAHAUL SPITI,31.69653,77.69735,6,3,9,,,,,ASW,ASW-03
IN,RGI50-14.11787,7346,WESTERN HIMALAYA,LAHAUL SPITI,31.68738,77.66523,6,3,9,,,,,ASW,ASW-03
IN,RGI50-14.11788,9530,WESTERN HIMALAYA,LAHAUL SPITI,31.68381,77.65833,6,3,9,,,,,ASW,ASW-03
IN,RGI50-14.11789,9597,WESTERN HIMALAYA,LAHAUL SPITI,31.66986,77.6597,6,3,9,,,,,ASW,ASW-03
IN,RGI50-14.11790,7398,WESTERN HIMALAYA,LAHAUL SPITI,31.67383,77.6535,6,3,9,,,,,ASW,ASW-03
IN,RGI50-14.11791,10073,WESTERN HIMALAYA,LAHAUL SPITI,31.66255,77.65139,6,3,9,,,,,ASW,ASW-03
IN,RGI50-14.11792,7372,WESTERN HIMALAYA,LAHAUL SPITI,31.65673,77.65304,6,3,9,,,,,ASW,ASW-03
IN,RGI50-14.11793,7292,WESTERN HIMALAYA,LAHAUL SPITI,31.67038,77.64484,6,3,9,,,,,ASW,ASW-03
IN,RGI50-14.11794,7378,WESTERN HIMALAYA,LAHAUL SPITI,31.66375,77.63818,6,3,9,,,,,ASW,ASW-03
IN,RGI50-14.11795,9501,WESTERN HIMALAYA,LAHAUL SPITI,31.6541,77.61601,6,3,9,,,,,ASW,ASW-03
IN,RGI50-14.11796,7256,WESTERN HIMALAYA,LAHAUL SPITI,31.66027,77.62684,6,3,9,,,,,ASW,ASW-03
IN,RGI50-14.11797,10072,WESTERN HIMALAYA,LAHAUL SPITI,31.73621,77.65672,6,3,9,,,,,ASW,ASW-03
IN,RGI50-14.11798,7308,WESTERN HIMALAYA,LAHAUL SPITI,31.72866,77.65469,6,3,9,,,,,ASW,ASW-03
IN,RGI50-14.11799,9489,WESTERN HIMALAYA,LAHAUL SPITI,31.72127,77.64882,6,3,9,,,,,ASW,ASW-03
IN,RGI50-14.11800,7361,WESTERN HIMALAYA,LAHAUL SPITI,31.72857,77.64337,6,3,9,,,,,ASW,ASW-03
IN,RGI50-14.11801,7329,WESTERN HIMALAYA,LAHAUL SPITI,31.73269,77.63256,6,3,9,,,,,ASW,ASW-03
IN,RGI50-14.11802,10047,WESTERN HIMALAYA,LAHAUL SPITI,31.77016,77.69901,6,3,9,,,,,ASW,ASW-03
IN,RGI50-14.11803,9649,WESTERN HIMALAYA,LAHAUL SPITI,31.77902,77.73284,6,3,9,,,,,ASW,ASW-03
IN,RGI50-14.11804,7047,WESTERN HIMALAYA,LAHAUL SPITI,31.81388,77.70338,6,3,9,,,,,ASW,ASW-03
IN,RGI50-14.11805,10116,WESTERN HIMALAYA,LAHAUL SPITI,31.80741,77.72763,6,3,9,,,,,ASW,ASW-03
IN,RGI50-14.11806,7141,WESTERN HIMALAYA,LAHAUL SPITI,31.81733,77.72243,6,2,9,,,,,ASW,ASW-03
IN,RGI50-14.11807,10191,WESTERN HIMALAYA,LAHAUL SPITI,31.83824,77.76369,6,3,9,,,,,ASW,ASW-03
IN,RGI50-14.11808,9664,WESTERN HIMALAYA,LAHAUL SPITI,31.88717,77.72465,6,3,9,,,,,ASW,ASW-03
IN,RGI50-14.11809,7286,WESTERN HIMALAYA,LAHAUL SPITI,31.88121,77.71059,6,3,9,,,,,ASW,ASW-03
IN,RGI50-14.11810,10110,WESTERN HIMALAYA,LAHAUL SPITI,31.88133,77.72497,6,3,9,,,,,ASW,ASW-03
IN,RGI50-14.11811,10099,WESTERN HIMALAYA,LAHAUL SPITI,31.87059,77.74583,6,3,9,,,,,ASW,ASW-03
IN,RGI50-14.11812,7232,WESTERN HIMALAYA,LAHAUL SPITI,31.87567,77.73335,6,3,9,,,,,ASW,ASW-03
IN,RGI50-14.11813,9513,WESTERN HIMALAYA,LAHAUL SPITI,31.866,77.72059,6,3,9,,,,,ASW,ASW-03
IN,RGI50-14.11814,6865,WESTERN HIMALAYA,LAHAUL SPITI,31.85898,77.72839,6,3,9,,,,,ASW,ASW-03
IN,RGI50-14.11815,7154,WESTERN HIMALAYA,LAHAUL SPITI,31.84469,77.73892,6,2,9,,,,,ASW,ASW-03
IN,RGI50-14.11816,9887,WESTERN HIMALAYA,LAHAUL SPITI,31.89694,77.66744,6,3,9,,,,,ASW,ASW-03
IN,RGI50-14.11817,10159,WESTERN HIMALAYA,LAHAUL SPITI,31.87573,77.66025,6,3,9,,,,,ASW,ASW-03
IN,RGI50-14.11818,9713,WESTERN HIMALAYA,LAHAUL SPITI,31.8561,77.65187,6,3,9,,,,,ASW,ASW-03
IN,RGI50-14.11819,7339,WESTERN HIMALAYA,LAHAUL SPITI,31.84945,77.6535,6,3,9,,,,,ASW,ASW-03
IN,RGI50-14.11820,7063,WESTERN HIMALAYA,LAHAUL SPITI,31.86342,77.6991,6,3,9,,,,,ASW,ASW-03
IN,RGI50-14.11821,6947,WESTERN HIMALAYA,LAHAUL SPITI,31.7906,77.82777,6,3,9,,,,,ASW,ASW-03
IN,RGI50-14.11822,7297,WESTERN HIMALAYA,LAHAUL SPITI,31.79872,77.83376,6,3,9,,,,,ASW,ASW-03
IN,RGI50-14.11823,7110,WESTERN HIMALAYA,LAHAUL SPITI,31.81367,77.83555,6,3,9,,,,,ASW,ASW-03
IN,RGI50-14.11824,9516,WESTERN HIMALAYA,LAHAUL SPITI,31.83211,77.84283,6,3,9,,,,,ASW,ASW-03
IN,RGI50-14.11825,7373,WESTERN HIMALAYA,LAHAUL SPITI,31.83688,77.84959,6,3,9,,,,,ASW,ASW-03
IN,RGI50-14.11826,7211,WESTERN HIMALAYA,LAHAUL SPITI,31.84253,77.83249,6,3,9,,,,,ASW,ASW-03
IN,RGI50-14.11827,10168,WESTERN HIMALAYA,LAHAUL SPITI,31.84551,77.84747,6,3,9,,,,,ASW,ASW-03
IN,RGI50-14.11828,6958,WESTERN HIMALAYA,LAHAUL SPITI,31.87422,77.80643,6,3,9,,,,,ASW,ASW-03
IN,RGI50-14.11829,9806,WESTERN HIMALAYA,LAHAUL SPITI,31.87496,77.8133,6,3,9,,,,,ASW,ASW-03
IN,RGI50-14.11830,9963,WESTERN HIMALAYA,LAHAUL SPITI,31.87864,77.81702,6,3,9,,,,,ASW,ASW-03
IN,RGI50-14.11831,10226,WESTERN HIMALAYA,LAHAUL SPITI,31.88488,77.84308,6,2,9,,,,,ASW,ASW-03
IN,RGI50-14.11832,9962,WESTERN HIMALAYA,LAHAUL SPITI,31.91678,77.78406,6,3,9,,,,,ASW,ASW-03
IN,RGI50-14.11833,9763,WESTERN HIMALAYA,LAHAUL SPITI,31.94782,77.74911,6,3,9,,,,,ASW,ASW-03
IN,RGI50-14.11834,7081,WESTERN HIMALAYA,LAHAUL SPITI,31.94153,77.75504,6,3,9,,,,,ASW,ASW-03
IN,RGI50-14.11835,7365,WESTERN HIMALAYA,LAHAUL SPITI,31.93567,77.76204,6,3,9,,,,,ASW,ASW-03
IN,RGI50-14.11836,10079,WESTERN HIMALAYA,LAHAUL SPITI,31.9537,77.7765,6,3,9,,,,,ASW,ASW-03
IN,RGI50-14.11837,10107,WESTERN HIMALAYA,LAHAUL SPITI,31.97078,77.78855,6,3,9,,,,,ASW,ASW-03
IN,RGI50-14.11838,7064,WESTERN HIMALAYA,LAHAUL SPITI,31.9416,77.81799,6,3,9,,,,,ASW,ASW-03
IN,RGI50-14.11839,7066,WESTERN HIMALAYA,LAHAUL SPITI,31.94828,77.83513,6,3,9,,,,,ASW,ASW-03
IN,RGI50-14.11840,6990,WESTERN HIMALAYA,LAHAUL SPITI,31.9325,77.80655,6,3,9,,,,,ASW,ASW-03
IN,RGI50-14.11841,7143,WESTERN HIMALAYA,LAHAUL SPITI,31.92105,77.80009,6,2,9,,,,,ASW,ASW-03
IN,RGI50-14.11842,7092,WESTERN HIMALAYA,LAHAUL SPITI,32.01385,77.71936,6,3,9,,,,,ASW,ASW-03
IN,RGI50-14.11843,10006,WESTERN HIMALAYA,LAHAUL SPITI,31.99254,77.72237,6,3,9,,,,,ASW,ASW-03
IN,RGI50-14.11844,7127,WESTERN HIMALAYA,LAHAUL SPITI,32.04221,77.74335,6,2,9,,,,,ASW,ASW-03
IN,RGI50-14.11845,7379,WESTERN HIMALAYA,LAHAUL SPITI,31.9783,77.74989,6,3,9,,,,,ASW,ASW-03
IN,RGI50-14.11846,6970,WESTERN HIMALAYA,LAHAUL SPITI,31.95281,77.7039,6,3,9,,,,,ASW,ASW-03
IN,RGI50-14.11847,6868,WESTERN HIMALAYA,LAHAUL SPITI,31.96389,77.68568,6,3,9,,,,,ASW,ASW-03
IN,RGI50-14.11848,7130,WESTERN HIMALAYA,LAHAUL SPITI,31.97937,77.7642,6,2,9,,,,,ASW,ASW-03
IN,RGI50-14.11849,10036,WESTERN HIMALAYA,LAHAUL SPITI,32.05362,77.7048,6,3,9,,,,,ASW,ASW-03
IN,RGI50-14.11850,10018,WESTERN HIMALAYA,LAHAUL SPITI,32.05943,77.70975,6,3,9,,,,,ASW,ASW-03
IN,RGI50-14.11851,10081,WESTERN HIMALAYA,LAHAUL SPITI,32.06206,77.71626,6,3,9,,,,,ASW,ASW-03
IN,RGI50-14.11852,9780,WESTERN HIMALAYA,LAHAUL SPITI,32.02645,77.77457,6,3,9,,,,,ASW,ASW-03
IN,RGI50-14.11853,9591,WESTERN HIMALAYA,LAHAUL SPITI,32.01836,77.83001,6,3,9,,,,,ASW,ASW-03
IN,RGI50-14.11854,9902,WESTERN HIMALAYA,LAHAUL SPITI,32.01619,77.81871,6,3,9,,,,,ASW,ASW-03
IN,RGI50-14.11855,10197,WESTERN HIMALAYA,LAHAUL SPITI,31.98952,77.80993,6,3,9,,,,,ASW,ASW-03
IN,RGI50-14.11856,7161,WESTERN HIMALAYA,LAHAUL SPITI,32.00689,77.79726,6,2,9,,,,,ASW,ASW-03
IN,RGI50-14.11857,9534,WESTERN HIMALAYA,LAHAUL SPITI,32.05733,77.79797,6,3,9,,,,,ASW,ASW-03
IN,RGI50-14.11858,10022,WESTERN HIMALAYA,LAHAUL SPITI,32.09102,77.77086,6,3,9,,,,,ASW,ASW-03
IN,RGI50-14.11859,7135,WESTERN HIMALAYA,LAHAUL SPITI,32.06479,77.78118,6,2,9,,,,,ASW,ASW-03
IN,RGI50-14.11860,7261,WESTERN HIMALAYA,LAHAUL SPITI,32.09113,77.78716,6,3,9,,,,,ASW,ASW-03
IN,RGI50-14.11861,7150,WESTERN HIMALAYA,LAHAUL SPITI,32.1092,77.79336,6,2,9,,,,,ASW,ASW-03
IN,RGI50-14.11862,7159,WESTERN HIMALAYA,LAHAUL SPITI,32.13143,77.80386,6,2,9,,,,,ASW,ASW-03
IN,RGI50-14.11863,9676,WESTERN HIMALAYA,LAHAUL SPITI,32.17886,77.82411,6,3,9,,,,,ASW,ASW-03
IN,RGI50-14.11864,7149,WESTERN HIMALAYA,LAHAUL SPITI,32.15618,77.82284,6,2,9,,,,,ASW,ASW-03
IN,RGI50-14.11865,7282,WESTERN HIMALAYA,LAHAUL SPITI,32.13923,77.84866,6,3,9,,,,,ASW,ASW-03
IN,RGI50-14.11866,9600,WESTERN HIMALAYA,LAHAUL SPITI,32.11856,77.86272,6,3,9,,,,,ASW,ASW-03
IN,RGI50-14.11867,9678,WESTERN HIMALAYA,LAHAUL SPITI,32.10868,77.86697,6,3,9,,,,,ASW,ASW-03
IN,RGI50-14.11868,9635,WESTERN HIMALAYA,LAHAUL SPITI,32.12015,77.8788,6,3,9,,,,,ASW,ASW-03
IN,RGI50-14.11869,7392,WESTERN HIMALAYA,LAHAUL SPITI,32.13524,77.86797,6,3,9,,,,,ASW,ASW-03
IN,RGI50-14.11870,7343,WESTERN HIMALAYA,LAHAUL SPITI,32.1272,77.87159,6,3,9,,,,,ASW,ASW-03
IN,RGI50-14.11871,9575,WESTERN HIMALAYA,LAHAUL SPITI,32.11825,77.891,6,3,9,,,,,ASW,ASW-03
IN,RGI50-14.11872,7363,WESTERN HIMALAYA,LAHAUL SPITI,32.14594,77.86156,6,3,9,,,,,ASW,ASW-03
IN,RGI50-14.11873,9647,WESTERN HIMALAYA,LAHAUL SPITI,32.11827,77.90646,6,3,9,,,,,ASW,ASW-03
IN,RGI50-14.11874,9599,WESTERN HIMALAYA,LAHAUL SPITI,32.11977,77.91209,6,3,9,,,,,ASW,ASW-03
IN,RGI50-14.11875,9616,WESTERN HIMALAYA,LAHAUL SPITI,32.12251,77.91917,6,3,9,,,,,ASW,ASW-03
IN,RGI50-14.11876,9716,WESTERN HIMALAYA,LAHAUL SPITI,32.12053,77.9269,6,3,9,,,,,ASW,ASW-03
IN,RGI50-14.11877,9458,WESTERN HIMALAYA,LAHAUL SPITI,32.11419,77.92268,6,3,9,,,,,ASW,ASW-03
IN,RGI50-14.11878,9561,WESTERN HIMALAYA,LAHAUL SPITI,32.10736,77.92559,6,3,9,,,,,ASW,ASW-03
IN,RGI50-14.11879,9532,WESTERN HIMALAYA,LAHAUL SPITI,32.10318,77.93004,6,3,9,,,,,ASW,ASW-03
IN,RGI50-14.11880,9596,WESTERN HIMALAYA,LAHAUL SPITI,32.09284,77.92594,6,3,9,,,,,ASW,ASW-03
IN,RGI50-14.11881,9466,WESTERN HIMALAYA,LAHAUL SPITI,32.08383,77.9318,6,3,9,,,,,ASW,ASW-03
IN,RGI50-14.11882,7360,WESTERN HIMALAYA,LAHAUL SPITI,32.10001,77.91714,6,3,9,,,,,ASW,ASW-03
IN,RGI50-14.11883,9690,WESTERN HIMALAYA,LAHAUL SPITI,32.19658,77.87437,6,3,9,,,,,ASW,ASW-03
IN,RGI50-14.11884,9708,WESTERN HIMALAYA,LAHAUL SPITI,32.19212,77.85261,6,3,9,,,,,ASW,ASW-03
IN,RGI50-14.11885,10023,WESTERN HIMALAYA,LAHAUL SPITI,32.19367,77.79854,6,3,9,,,,,ASW,ASW-03
IN,RGI50-14.11886,7180,WESTERN HIMALAYA,LAHAUL SPITI,32.199,77.81194,6,3,9,,,,,ASW,ASW-03
IN,RGI50-14.11887,9546,WESTERN HIMALAYA,LAHAUL SPITI,32.21369,77.79285,6,3,9,,,,,ASW,ASW-03
IN,RGI50-14.11888,9684,WESTERN HIMALAYA,LAHAUL SPITI,32.20447,77.79231,6,3,9,,,,,ASW,ASW-03
IN,RGI50-14.11889,9536,WESTERN HIMALAYA,LAHAUL SPITI,32.22313,77.79638,6,3,9,,,,,ASW,ASW-03
IN,RGI50-14.11890,9630,WESTERN HIMALAYA,LAHAUL SPITI,32.22922,77.78593,6,3,9,,,,,ASW,ASW-03
IN,RGI50-14.11891,10135,WESTERN HIMALAYA,LAHAUL SPITI,32.23584,77.79639,6,3,9,,,,,ASW,ASW-03
IN,RGI50-14.11892,9633,WESTERN HIMALAYA,LAHAUL SPITI,32.22612,77.75053,6,3,9,,,,,ASW,ASW-03
IN,RGI50-14.11893,9479,WESTERN HIMALAYA,LAHAUL SPITI,32.23709,77.75093,6,3,9,,,,,ASW,ASW-03
IN,RGI50-14.11894,7152,WESTERN HIMALAYA,LAHAUL SPITI,32.20744,77.76821,6,2,9,,,,,ASW,ASW-03
IN,RGI50-14.11895,9581,WESTERN HIMALAYA,LAHAUL SPITI,32.25247,77.79966,6,3,9,,,,,ASW,ASW-03
IN,RGI50-14.11896,7323,WESTERN HIMALAYA,LAHAUL SPITI,32.24834,77.7909,6,3,9,,,,,ASW,ASW-03
IN,RGI50-14.11897,9704,WESTERN HIMALAYA,LAHAUL SPITI,32.26822,77.81046,6,3,9,,,,,ASW,ASW-03
IN,RGI50-14.11898,7041,WESTERN HIMALAYA,LAHAUL SPITI,32.26798,77.79833,6,3,9,,,,,ASW,ASW-03
IN,RGI50-14.11899,9512,WESTERN HIMALAYA,LAHAUL SPITI,32.27574,77.8084,6,3,9,,,,,ASW,ASW-03
IN,RGI50-14.11900,7215,WESTERN HIMALAYA,LAHAUL SPITI,32.19423,77.83896,6,3,9,,,,,ASW,ASW-03
IN,RGI50-14.11901,7321,WESTERN HIMALAYA,LAHAUL SPITI,32.20098,77.86217,6,3,9,,,,,ASW,ASW-03
IN,RGI50-14.11902,6962,WESTERN HIMALAYA,LAHAUL SPITI,32.22614,77.86623,6,3,9,,,,,ASW,ASW-03
IN,RGI50-14.11903,9732,WESTERN HIMALAYA,LAHAUL SPITI,32.23474,77.87742,6,3,9,,,,,ASW,ASW-03
IN,RGI50-14.11904,10075,WESTERN HIMALAYA,LAHAUL SPITI,32.22417,77.8747,6,3,9,,,,,ASW,ASW-03
IN,RGI50-14.11905,7331,WESTERN HIMALAYA,LAHAUL SPITI,32.20801,77.88301,6,3,9,,,,,ASW,ASW-03
IN,RGI50-14.11906,9622,WESTERN HIMALAYA,LAHAUL SPITI,32.24436,77.89165,6,3,9,,,,,ASW,ASW-03
IN,RGI50-14.11907,10282,WESTERN HIMALAYA,LAHAUL SPITI,32.25356,77.91015,6,3,9,,,,,ASW,ASW-03
IN,RGI50-14.11908,9510,WESTERN HIMALAYA,LAHAUL SPITI,32.26294,77.90154,6,3,9,,,,,ASW,ASW-03
IN,RGI50-14.11909,6895,WESTERN HIMALAYA,LAHAUL SPITI,32.34648,77.79171,6,3,9,,,,,ASW,ASW-03
IN,RGI50-14.11910,9758,WESTERN HIMALAYA,LAHAUL SPITI,32.34983,77.77754,6,3,9,,,,,ASW,ASW-03
IN,RGI50-14.11911,9778,WESTERN HIMALAYA,LAHAUL SPITI,32.3609,77.78425,6,3,9,,,,,ASW,ASW-03
IN,RGI50-14.11912,9655,WESTERN HIMALAYA,LAHAUL SPITI,32.36643,77.78837,6,3,9,,,,,ASW,ASW-03
IN,RGI50-14.11913,7022,WESTERN HIMALAYA,LAHAUL SPITI,32.37773,77.79199,6,3,9,,,,,ASW,ASW-03
IN,RGI50-14.11914,7000,WESTERN HIMALAYA,LAHAUL SPITI,32.39387,77.79841,6,3,9,,,,,ASW,ASW-03
IN,RGI50-14.11915,6983,WESTERN HIMALAYA,LAHAUL SPITI,32.38517,77.86855,6,3,9,,,,,ASW,ASW-03
IN,RGI50-14.11916,7079,WESTERN HIMALAYA,LAHAUL SPITI,32.38831,77.85437,6,3,9,,,,,ASW,ASW-03
IN,RGI50-14.11917,9709,WESTERN HIMALAYA,LAHAUL SPITI,32.17892,77.9943,6,3,9,,,,,ASW,ASW-03
IN,RGI50-14.11936,9551,WESTERN HIMALAYA,LAHAUL SPITI,32.27842,77.88672,6,3,9,,,,,ASW,ASW-03
IN,RGI50-14.11937,9762,WESTERN HIMALAYA,LAHAUL SPITI,32.27267,77.89514,6,3,9,,,,,ASW,ASW-03
IN,RGI50-14.11938,9745,WESTERN HIMALAYA,LAHAUL SPITI,32.2499,77.89091,6,3,9,,,,,ASW,ASW-03
IN,RGI50-14.11939,6995,WESTERN HIMALAYA,LAHAUL SPITI,32.25372,77.88327,6,3,9,,,,,ASW,ASW-03
IN,RGI50-14.11940,7350,WESTERN HIMALAYA,LAHAUL SPITI,32.24408,77.87513,6,3,9,,,,,ASW,ASW-03
IN,RGI50-14.11941,9951,WESTERN HIMALAYA,LAHAUL SPITI,32.20204,77.87374,6,3,9,,,,,ASW,ASW-03
IN,RGI50-14.11942,9973,WESTERN HIMALAYA,LAHAUL SPITI,32.20897,77.84713,6,3,9,,,,,ASW,ASW-03
IN,RGI50-14.11943,9746,WESTERN HIMALAYA,LAHAUL SPITI,32.20673,77.85077,6,3,9,,,,,ASW,ASW-03
IN,RGI50-14.11944,9956,WESTERN HIMALAYA,LAHAUL SPITI,32.13551,77.83781,6,3,9,,,,,ASW,ASW-03
IN,RGI50-14.11945,10032,WESTERN HIMALAYA,LAHAUL SPITI,32.13552,77.83262,6,3,9,,,,,ASW,ASW-03
IN,RGI50-14.11946,9900,WESTERN HIMALAYA,LAHAUL SPITI,32.13643,77.82223,6,3,9,,,,,ASW,ASW-03
IN,RGI50-14.11947,9916,WESTERN HIMALAYA,LAHAUL SPITI,32.11205,77.89834,6,3,9,,,,,ASW,ASW-03
IN,RGI50-14.11949,10144,WESTERN HIMALAYA,LAHAUL SPITI,32.08784,77.73605,6,3,9,,,,,ASW,ASW-03
IN,RGI50-14.11951,9613,WESTERN HIMALAYA,LAHAUL SPITI,32.03546,77.84483,6,3,9,,,,,ASW,ASW-03
IN,RGI50-14.11952,9910,WESTERN HIMALAYA,LAHAUL SPITI,32.03661,77.85477,6,3,9,,,,,ASW,ASW-03
IN,RGI50-14.11953,9603,WESTERN HIMALAYA,LAHAUL SPITI,32.04498,77.85961,6,3,9,,,,,ASW,ASW-03
IN,RGI50-14.11954,6861,WESTERN HIMALAYA,LAHAUL SPITI,31.77804,77.68151,6,3,9,,,,,ASW,ASW-03
IN,RGI50-14.11955,7011,WESTERN HIMALAYA,LAHAUL SPITI,31.77432,77.68826,6,3,9,,,,,ASW,ASW-03
IN,RGI50-14.11956,10112,WESTERN HIMALAYA,LAHAUL SPITI,31.7826,77.68755,6,3,9,,,,,ASW,ASW-03
IN,RGI50-14.11957,7019,WESTERN HIMALAYA,LAHAUL SPITI,31.78436,77.6814,6,3,9,,,,,ASW,ASW-03
IN,RGI50-14.11958,9847,WESTERN HIMALAYA,LAHAUL SPITI,31.76987,77.70345,6,3,9,,,,,ASW,ASW-03
IN,RGI50-14.11959,9715,WESTERN HIMALAYA,LAHAUL SPITI,31.77168,77.70767,6,3,9,,,,,ASW,ASW-03
IN,RGI50-14.11960,9784,WESTERN HIMALAYA,LAHAUL SPITI,31.74671,77.65469,6,3,9,,,,,ASW,ASW-03
IN,RGI50-14.11961,9706,WESTERN HIMALAYA,LAHAUL SPITI,31.74666,77.65828,6,3,9,,,,,ASW,ASW-03
IN,RGI50-14.11962,9619,WESTERN HIMALAYA,LAHAUL SPITI,31.74744,77.66296,6,3,9,,,,,ASW,ASW-03
IN,RGI50-14.11963,6909,WESTERN HIMALAYA,LAHAUL SPITI,31.7457,77.66754,6,3,9,,,,,ASW,ASW-03
IN,RGI50-14.11964,6980,WESTERN HIMALAYA,LAHAUL SPITI,31.72607,77.62753,6,3,9,,,,,ASW,ASW-03
IN,RGI50-14.11965,9701,WESTERN HIMALAYA,LAHAUL SPITI,31.71711,77.66621,6,3,9,,,,,ASW,ASW-03
IN,RGI50-14.11966,9695,WESTERN HIMALAYA,LAHAUL SPITI,31.71557,77.67203,6,3,9,,,,,ASW,ASW-03
IN,RGI50-14.11967,9756,WESTERN HIMALAYA,LAHAUL SPITI,31.6928,77.6758,6,3,9,,,,,ASW,ASW-03
IN,RGI50-14.11968,7057,WESTERN HIMALAYA,LAHAUL SPITI,31.70176,77.67326,6,3,9,,,,,ASW,ASW-03
IN,RGI50-14.11969,9700,WESTERN HIMALAYA,LAHAUL SPITI,31.69772,77.66804,6,3,9,,,,,ASW,ASW-03
IN,RGI50-14.11970,9711,WESTERN HIMALAYA,LAHAUL SPITI,31.66475,77.60085,6,3,9,,,,,ASW,ASW-03
IN,RGI50-14.11971,9674,WESTERN HIMALAYA,LAHAUL SPITI,31.66361,77.60892,6,3,9,,,,,ASW,ASW-03
IN,RGI50-14.11972,9607,WESTERN HIMALAYA,LAHAUL SPITI,31.66134,77.61691,6,3,9,,,,,ASW,ASW-03
IN,RGI50-14.11973,6985,WESTERN HIMALAYA,LAHAUL SPITI,31.75942,77.73167,6,3,9,,,,,ASW,ASW-03
IN,RGI50-14.11974,7060,WESTERN HIMALAYA,LAHAUL SPITI,31.77614,77.74104,6,3,9,,,,,ASW,ASW-03
IN,RGI50-14.11975,6852,WESTERN HIMALAYA,LAHAUL SPITI,31.74893,77.77631,6,3,9,,,,,ASW,ASW-03
IN,RGI50-14.11976,9562,WESTERN HIMALAYA,LAHAUL SPITI,31.80597,77.7536,6,3,9,,,,,ASW,ASW-03
IN,RGI50-14.11977,7218,WESTERN HIMALAYA,LAHAUL SPITI,31.79684,77.76894,6,3,9,,,,,ASW,ASW-03
IN,RGI50-14.11978,10246,WESTERN HIMALAYA,LAHAUL SPITI,31.81028,77.76987,6,3,9,,,,,ASW,ASW-03
IN,RGI50-14.11980,6869,WESTERN HIMALAYA,LAHAUL SPITI,31.80047,77.74796,6,3,9,,,,,ASW,ASW-03
IN,RGI50-14.11981,6925,WESTERN HIMALAYA,LAHAUL SPITI,31.82582,77.73466,6,3,9,,,,,ASW,ASW-03
IN,RGI50-14.11982,9494,WESTERN HIMALAYA,LAHAUL SPITI,31.89091,77.72001,6,3,9,,,,,ASW,ASW-03
IN,RGI50-14.11983,6922,WESTERN HIMALAYA,LAHAUL SPITI,31.89146,77.71111,6,3,9,,,,,ASW,ASW-03
IN,RGI50-14.11984,6860,WESTERN HIMALAYA,LAHAUL SPITI,31.89571,77.71161,6,3,9,,,,,ASW,ASW-03
IN,RGI50-14.11985,9614,WESTERN HIMALAYA,LAHAUL SPITI,31.90037,77.71769,6,3,9,,,,,ASW,ASW-03
IN,RGI50-14.11986,7099,WESTERN HIMALAYA,LAHAUL SPITI,31.8635,77.71181,6,3,9,,,,,ASW,ASW-03
IN,RGI50-14.11987,9480,WESTERN HIMALAYA,LAHAUL SPITI,31.88125,77.80714,6,3,9,,,,,ASW,ASW-03
IN,RGI50-14.11988,7341,WESTERN HIMALAYA,LAHAUL SPITI,31.89144,77.81867,6,3,9,,,,,ASW,ASW-03
IN,RGI50-14.11989,9853,WESTERN HIMALAYA,LAHAUL SPITI,31.88443,77.82003,6,3,9,,,,,ASW,ASW-03
IN,RGI50-14.11990,6984,WESTERN HIMALAYA,LAHAUL SPITI,31.86326,77.83915,6,3,9,,,,,ASW,ASW-03
IN,RGI50-14.11991,7042,WESTERN HIMALAYA,LAHAUL SPITI,31.85648,77.83224,6,3,9,,,,,ASW,ASW-03
IN,RGI50-14.11992,9747,WESTERN HIMALAYA,LAHAUL SPITI,31.85211,77.82047,6,3,9,,,,,ASW,ASW-03
IN,RGI50-14.11993,9631,WESTERN HIMALAYA,LAHAUL SPITI,31.85323,77.82565,6,3,9,,,,,ASW,ASW-03
IN,RGI50-14.11996,6964,WESTERN HIMALAYA,LAHAUL SPITI,31.94415,77.84057,6,3,9,,,,,ASW,ASW-03
IN,RGI50-14.11997,7018,WESTERN HIMALAYA,LAHAUL SPITI,31.95889,77.83096,6,3,9,,,,,ASW,ASW-03
IN,RGI50-14.11998,9659,WESTERN HIMALAYA,LAHAUL SPITI,31.92809,77.77853,6,3,9,,,,,ASW,ASW-03
IN,RGI50-14.11999,7027,WESTERN HIMALAYA,LAHAUL SPITI,31.92308,77.77456,6,3,9,,,,,ASW,ASW-03
IN,RGI50-14.12000,6967,WESTERN HIMALAYA,LAHAUL SPITI,31.94657,77.73841,6,3,9,,,,,ASW,ASW-03
IN,RGI50-14.12001,9767,WESTERN HIMALAYA,LAHAUL SPITI,31.95275,77.74206,6,3,9,,,,,ASW,ASW-03
IN,RGI50-14.12002,6891,WESTERN HIMALAYA,LAHAUL SPITI,31.9443,77.72691,6,3,9,,,,,ASW,ASW-03
IN,RGI50-14.12003,9815,WESTERN HIMALAYA,LAHAUL SPITI,31.95254,77.71643,6,3,9,,,,,ASW,ASW-03
IN,RGI50-14.12004,9734,WESTERN HIMALAYA,LAHAUL SPITI,31.95575,77.72145,6,3,9,,,,,ASW,ASW-03
IN,RGI50-14.12005,9636,WESTERN HIMALAYA,LAHAUL SPITI,31.95264,77.72848,6,3,9,,,,,ASW,ASW-03
IN,RGI50-14.12007,10301,WESTERN HIMALAYA,LAHAUL SPITI,31.70431,77.75584,6,3,9,,,,,ASW,ASW-03
IN,RGI50-14.12008,9945,WESTERN HIMALAYA,LAHAUL SPITI,31.70379,77.76048,6,3,9,,,,,ASW,ASW-03
IN,RGI50-14.12009,9669,WESTERN HIMALAYA,LAHAUL SPITI,31.70309,77.76898,6,3,9,,,,,ASW,ASW-03
IN,RGI50-14.12010,9468,WESTERN HIMALAYA,LAHAUL SPITI,31.69188,77.79255,6,3,9,,,,,ASW,ASW-03
IN,RGI50-14.12011,9912,WESTERN HIMALAYA,LAHAUL SPITI,31.68147,77.79403,6,3,9,,,,,ASW,ASW-03
IN,RGI50-14.12062,9858,WESTERN HIMALAYA,LAHAUL SPITI,32.64315,77.89933,6,3,9,,,,,ASW,ASW-03
IN,RGI50-14.12063,9876,WESTERN HIMALAYA,LAHAUL SPITI,32.57762,77.87135,6,3,9,,,,,ASW,ASW-03
IN,RGI50-14.12064,9903,WESTERN HIMALAYA,LAHAUL SPITI,32.53788,77.83804,6,3,9,,,,,ASW,ASW-03
IN,RGI50-14.12065,6902,WESTERN HIMALAYA,LAHAUL SPITI,32.53352,77.83818,6,3,9,,,,,ASW,ASW-03
IN,RGI50-14.12066,9679,WESTERN HIMALAYA,LAHAUL SPITI,32.39043,77.80048,6,3,9,,,,,ASW,ASW-03
IN,RGI50-14.12067,9722,WESTERN HIMALAYA,LAHAUL SPITI,32.16002,77.85217,6,3,9,,,,,ASW,ASW-03
IN,RGI50-14.12069,9787,WESTERN HIMALAYA,LAHAUL SPITI,31.97018,77.6863,6,3,9,,,,,ASW,ASW-03
IN,RGI50-14.12070,9738,WESTERN HIMALAYA,LAHAUL SPITI,31.96787,77.69331,6,3,9,,,,,ASW,ASW-03
IN,RGI50-14.12071,9845,WESTERN HIMALAYA,LAHAUL SPITI,31.98587,77.68323,6,3,9,,,,,ASW,ASW-03
IN,RGI50-14.12087,10265,WESTERN HIMALAYA,LAHAUL SPITI,31.76792,77.85709,6,3,9,,,,,ASW,ASW-03
IN,RGI50-14.12088,10007,WESTERN HIMALAYA,LAHAUL SPITI,31.763,77.85639,6,3,9,,,,,ASW,ASW-03
IN,RGI50-14.12124,10324,WESTERN HIMALAYA,LAHAUL SPITI,31.88495,77.66685,6,3,9,,,,,ASW,ASW-03
IN,RGI50-14.12125,9813,WESTERN HIMALAYA,LAHAUL SPITI,31.71681,77.66026,6,3,9,,,,,ASW,ASW-03
IN,RGI50-14.12134,6855,WESTERN HIMALAYA,LAHAUL SPITI,31.80318,77.81982,6,3,9,,,,,ASW,ASW-03
IN,RGI50-14.12135,6920,WESTERN HIMALAYA,LAHAUL SPITI,31.80776,77.82198,6,3,9,,,,,ASW,ASW-03
IN,RGI50-14.12136,9817,WESTERN HIMALAYA,LAHAUL SPITI,31.81573,77.82228,6,3,9,,,,,ASW,ASW-03
IN,RGI50-14.12137,6931,WESTERN HIMALAYA,LAHAUL SPITI,31.82728,77.84187,6,3,9,,,,,ASW,ASW-03
IN,RGI50-14.12138,9749,WESTERN HIMALAYA,LAHAUL SPITI,31.90144,77.80003,6,3,9,,,,,ASW,ASW-03
IN,RGI50-14.12174,10150,WESTERN HIMALAYA,LAHAUL SPITI,31.88733,77.82605,6,3,9,,,,,ASW,ASW-03
IN,RGI50-14.12175,6981,WESTERN HIMALAYA,LAHAUL SPITI,31.80095,77.8692,6,3,9,,,,,ASW,ASW-03
IN,RGI50-14.12228,9772,WESTERN HIMALAYA,LAHAUL SPITI,32.026,77.72874,6,3,9,,,,,ASW,ASW-03
IN,RGI50-14.12229,6904,WESTERN HIMALAYA,LAHAUL SPITI,32.0268,77.73479,6,3,9,,,,,ASW,ASW-03
IN,RGI50-14.12230,9994,WESTERN HIMALAYA,LAHAUL SPITI,32.02115,77.72301,6,3,9,,,,,ASW,ASW-03
IN,RGI50-14.12231,7391,WESTERN HIMALAYA,LAHAUL SPITI,32.00744,77.70526,6,3,9,,,,,ASW,ASW-03
IN,RGI50-14.12232,10021,WESTERN HIMALAYA,LAHAUL SPITI,32.00533,77.74139,6,3,9,,,,,ASW,ASW-03
IN,RGI50-14.12233,9891,WESTERN HIMALAYA,LAHAUL SPITI,32.00335,77.73925,6,3,9,,,,,ASW,ASW-03
IN,RGI50-14.12234,10207,WESTERN HIMALAYA,LAHAUL SPITI,32.00352,77.72678,6,3,9,,,,,ASW,ASW-03
IN,RGI50-14.12235,10085,WESTERN HIMALAYA,LAHAUL SPITI,31.99667,77.73507,6,3,9,,,,,ASW,ASW-03
IN,RGI50-14.12236,10140,WESTERN HIMALAYA,LAHAUL SPITI,31.98945,77.7389,6,3,9,,,,,ASW,ASW-03
IN,RGI50-14.12237,6928,WESTERN HIMALAYA,LAHAUL SPITI,31.95331,77.74735,6,3,9,,,,,ASW,ASW-03
IN,RGI50-14.12238,6862,WESTERN HIMALAYA,LAHAUL SPITI,31.94778,77.82648,6,3,9,,,,,ASW,ASW-03
IN,RGI50-14.12239,6957,WESTERN HIMALAYA,LAHAUL SPITI,31.98169,77.86929,6,3,9,,,,,ASW,ASW-03
IN,RGI50-14.12240,6900,WESTERN HIMALAYA,LAHAUL SPITI,31.98512,77.88795,6,3,9,,,,,ASW,ASW-03
IN,RGI50-14.12241,6885,WESTERN HIMALAYA,LAHAUL SPITI,31.98281,77.88319,6,3,9,,,,,ASW,ASW-03
IN,RGI50-14.12242,6898,WESTERN HIMALAYA,LAHAUL SPITI,31.96095,77.88334,6,3,9,,,,,ASW,ASW-03
IN,RGI50-14.12243,7196,WESTERN HIMALAYA,LAHAUL SPITI,31.93664,77.89418,6,3,9,,,,,ASW,ASW-03
IN,RGI50-14.12244,6948,WESTERN HIMALAYA,LAHAUL SPITI,31.91925,77.81485,6,3,9,,,,,ASW,ASW-03
IN,RGI50-14.12247,6969,WESTERN HIMALAYA,LAHAUL SPITI,32.06297,77.81026,6,3,9,,,,,ASW,ASW-03
IN,RGI50-14.12248,7369,WESTERN HIMALAYA,LAHAUL SPITI,32.06396,77.83046,6,3,9,,,,,ASW,ASW-03
IN,RGI50-14.12249,10300,WESTERN HIMALAYA,LAHAUL SPITI,32.06156,77.8226,6,3,9,,,,,ASW,ASW-03
IN,RGI50-14.12250,9609,WESTERN HIMALAYA,LAHAUL SPITI,32.05895,77.81709,6,3,9,,,,,ASW,ASW-03
IN,RGI50-14.12251,10027,WESTERN HIMALAYA,LAHAUL SPITI,32.05591,77.81169,6,3,9,,,,,ASW,ASW-03
IN,RGI50-14.12252,9680,WESTERN HIMALAYA,LAHAUL SPITI,32.08039,77.75226,6,3,9,,,,,ASW,ASW-03
IN,RGI50-14.12253,7153,WESTERN HIMALAYA,LAHAUL SPITI,32.03703,77.80371,6,2,9,,,,,ASW,ASW-03
IN,RGI50-14.12270,6926,WESTERN HIMALAYA,LAHAUL SPITI,31.7685,77.8076,6,3,9,,,,,ASW,ASW-03
IN,RGI50-14.12271,7206,WESTERN HIMALAYA,LAHAUL SPITI,31.78966,77.71232,6,3,9,,,,,ASW,ASW-03
IN,RGI50-14.12273,6859,WESTERN HIMALAYA,LAHAUL SPITI,31.80214,77.71697,6,3,9,,,,,ASW,ASW-03
IN,RGI50-14.12274,9850,WESTERN HIMALAYA,LAHAUL SPITI,31.79713,77.71805,6,3,9,,,,,ASW,ASW-03
IN,RGI50-14.12275,10179,WESTERN HIMALAYA,LAHAUL SPITI,31.79887,77.72482,6,3,9,,,,,ASW,ASW-03
IN,RGI50-14.12276,6992,WESTERN HIMALAYA,LAHAUL SPITI,31.79956,77.75155,6,3,9,,,,,ASW,ASW-03
IN,RGI50-14.12277,9895,WESTERN HIMALAYA,LAHAUL SPITI,31.69876,77.67863,6,3,9,,,,,ASW,ASW-03
IN,RGI50-14.12278,6908,WESTERN HIMALAYA,LAHAUL SPITI,31.82522,77.6466,6,3,9,,,,,ASW,ASW-03
IN,RGI50-14.12280,7101,WESTERN HIMALAYA,LAHAUL SPITI,31.83913,77.65929,6,3,9,,,,,ASW,ASW-03
IN,RGI50-14.12281,7111,WESTERN HIMALAYA,LAHAUL SPITI,31.83065,77.69182,6,3,9,,,,,ASW,ASW-03
IN,RGI50-14.12282,10210,WESTERN HIMALAYA,LAHAUL SPITI,31.82896,77.66875,6,3,9,,,,,ASW,ASW-03
IN,RGI50-14.12283,7213,WESTERN HIMALAYA,LAHAUL SPITI,31.7821,77.70435,6,3,9,,,,,ASW,ASW-03
IN,RGI50-14.12284,9866,WESTERN HIMALAYA,LAHAUL SPITI,31.64598,77.61345,6,3,9,,,,,ASW,ASW-03
IN,RGI50-14.12285,9835,WESTERN HIMALAYA,LAHAUL SPITI,32.19584,77.86021,6,3,9,,,,,ASW,ASW-03
IN,RGI50-14.12286,9826,WESTERN HIMALAYA,LAHAUL SPITI,32.19663,77.867,6,3,9,,,,,ASW,ASW-03
IN,RGI50-14.12287,9914,WESTERN HIMALAYA,LAHAUL SPITI,32.22212,77.866,6,3,9,,,,,ASW,ASW-03
IN,RGI50-14.12288,9760,WESTERN HIMALAYA,LAHAUL SPITI,32.2254,77.86298,6,3,9,,,,,ASW,ASW-03
IN,RGI50-14.12289,9658,WESTERN HIMALAYA,LAHAUL SPITI,32.25476,77.88673,6,3,9,,,,,ASW,ASW-03
IN,RGI50-14.12290,10248,WESTERN HIMALAYA,LAHAUL SPITI,32.25454,77.91512,6,3,9,,,,,ASW,ASW-03
IN,RGI50-14.12291,6881,WESTERN HIMALAYA,LAHAUL SPITI,32.25879,77.88989,6,3,9,,,,,ASW,ASW-03
IN,RGI50-14.12292,6858,WESTERN HIMALAYA,LAHAUL SPITI,31.67838,77.78859,6,3,9,,,,,ASW,ASW-03
IN,RGI50-14.12441,7036,WESTERN HIMALAYA,LAHAUL SPITI,31.70878,77.88375,6,3,9,,,,,ASW,ASW-03
IN,RGI50-14.12449,9464,WESTERN HIMALAYA,LAHAUL SPITI,31.99795,78.00738,6,3,9,,,,,ASW,ASW-03
IN,RGI50-14.12458,7061,WESTERN HIMALAYA,LAHAUL SPITI,31.73608,77.8679,6,3,9,,,,,ASW,ASW-03
IN,RGI50-14.12459,7106,WESTERN HIMALAYA,LAHAUL SPITI,31.73098,77.84965,6,3,9,,,,,ASW,ASW-03
IN,RGI50-14.12460,7240,WESTERN HIMALAYA,LAHAUL SPITI,31.71756,77.85258,6,3,9,,,,,ASW,ASW-03
IN,RGI50-14.12461,7028,WESTERN HIMALAYA,LAHAUL SPITI,31.70818,77.84846,6,3,9,,,,,ASW,ASW-03
IN,RGI50-14.12462,6945,WESTERN HIMALAYA,LAHAUL SPITI,31.71274,77.84741,6,3,9,,,,,ASW,ASW-03
IN,RGI50-14.12463,6944,WESTERN HIMALAYA,LAHAUL SPITI,31.71569,77.84416,6,3,9,,,,,ASW,ASW-03
IN,RGI50-14.12464,7025,WESTERN HIMALAYA,LAHAUL SPITI,31.71782,77.83555,6,3,9,,,,,ASW,ASW-03
IN,RGI50-14.12465,6894,WESTERN HIMALAYA,LAHAUL SPITI,31.73385,77.86031,6,3,9,,,,,ASW,ASW-03
IN,RGI50-14.12466,7187,WESTERN HIMALAYA,LAHAUL SPITI,31.74924,77.80623,6,3,9,,,,,ASW,ASW-03
IN,RGI50-14.12467,10235,WESTERN HIMALAYA,LAHAUL SPITI,31.72109,77.76704,6,2,9,,,,,ASW,ASW-03
IN,RGI50-14.12468,10211,WESTERN HIMALAYA,LAHAUL SPITI,31.7048,77.73782,6,3,9,,,,,ASW,ASW-03
IN,RGI50-14.12469,7169,WESTERN HIMALAYA,LAHAUL SPITI,31.71932,77.7261,6,2,9,,,,,ASW,ASW-03
IN,RGI50-14.12470,7289,WESTERN HIMALAYA,LAHAUL SPITI,31.72937,77.70673,6,3,9,,,,,ASW,ASW-03
IN,RGI50-14.12486,9996,WESTERN HIMALAYA,LAHAUL SPITI,31.69876,77.86334,6,3,9,,,,,ASW,ASW-03
IN,RGI50-14.12487,7014,WESTERN HIMALAYA,LAHAUL SPITI,31.69357,77.84935,6,3,9,,,,,ASW,ASW-03
IN,RGI50-14.12488,7020,WESTERN HIMALAYA,LAHAUL SPITI,31.70157,77.85458,6,3,9,,,,,ASW,ASW-03
IN,RGI50-14.12489,9794,WESTERN HIMALAYA,LAHAUL SPITI,31.70617,77.86355,6,3,9,,,,,ASW,ASW-03
IN,RGI50-14.12490,6870,WESTERN HIMALAYA,LAHAUL SPITI,31.72118,77.82674,6,3,9,,,,,ASW,ASW-03
IN,RGI50-14.12491,6973,WESTERN HIMALAYA,LAHAUL SPITI,31.72368,77.83118,6,3,9,,,,,ASW,ASW-03
IN,RGI50-14.12492,7037,WESTERN HIMALAYA,LAHAUL SPITI,31.72659,77.83543,6,3,9,,,,,ASW,ASW-03
IN,RGI50-14.12493,9584,WESTERN HIMALAYA,LAHAUL SPITI,31.74534,77.85741,6,3,9,,,,,ASW,ASW-03
IN,RGI50-14.12494,9836,WESTERN HIMALAYA,LAHAUL SPITI,31.73782,77.85909,6,3,9,,,,,ASW,ASW-03
IN,RGI50-14.12495,10256,WESTERN HIMALAYA,LAHAUL SPITI,31.73983,77.8066,6,3,9,,,,,ASW,ASW-03
IN,RGI50-14.12496,9892,WESTERN HIMALAYA,LAHAUL SPITI,31.73975,77.79876,6,3,9,,,,,ASW,ASW-03
IN,RGI50-14.12497,6877,WESTERN HIMALAYA,LAHAUL SPITI,31.77159,77.7422,6,3,9,,,,,ASW,ASW-03
IN,RGI50-14.12517,9710,WESTERN HIMALAYA,LAHAUL SPITI,31.97099,77.98272,6,3,9,,,,,ASW,ASW-03
IN,RGI50-14.12518,9729,WESTERN HIMALAYA,LAHAUL SPITI,31.97715,77.98759,6,3,9,,,,,ASW,ASW-03
IN,RGI50-14.12521,9455,WESTERN HIMALAYA,LAHAUL SPITI,31.72469,77.86606,6,3,9,,,,,ASW,ASW-03
IN,RGI50-14.12538,9988,WESTERN HIMALAYA,LAHAUL SPITI,31.75401,77.78481,6,3,9,,,,,ASW,ASW-03
IN,RGI50-14.12539,6867,WESTERN HIMALAYA,LAHAUL SPITI,31.72155,77.69905,6,3,9,,,,,ASW,ASW-03
IN,RGI50-14.12540,7076,WESTERN HIMALAYA,LAHAUL SPITI,31.73089,77.69569,6,3,9,,,,,ASW,ASW-03
IN,RGI50-14.12541,6866,WESTERN HIMALAYA,LAHAUL SPITI,31.73824,77.69788,6,3,9,,,,,ASW,ASW-03
IN,RGI50-14.12542,7370,WESTERN HIMALAYA,LAHAUL SPITI,31.74199,77.64101,6,3,9,,,,,ASW,ASW-03
IN,RGI50-14.12543,7313,WESTERN HIMALAYA,LAHAUL SPITI,31.74277,77.64825,6,3,9,,,,,ASW,ASW-03
IN,RGI50-14.12544,9707,WESTERN HIMALAYA,LAHAUL SPITI,31.74571,77.67474,6,3,9,,,,,ASW,ASW-03
IN,RGI50-14.13059,9768,WESTERN HIMALAYA,LAHAUL SPITI,32.59418,77.25444,6,3,9,,,,,ASW,ASW-03
IN,RGI50-14.13060,9543,WESTERN HIMALAYA,LAHAUL SPITI,32.57981,77.26807,6,3,9,,,,,ASW,ASW-03
IN,RGI50-14.13061,9542,WESTERN HIMALAYA,LAHAUL SPITI,32.57095,77.26111,6,3,9,,,,,ASW,ASW-03
IN,RGI50-14.13062,7165,WESTERN HIMALAYA,LAHAUL SPITI,32.57107,77.18738,6,2,9,,,,,ASW,ASW-03
IN,RGI50-14.13063,10188,WESTERN HIMALAYA,LAHAUL SPITI,32.55885,77.22978,6,3,9,,,,,ASW,ASW-03
IN,RGI50-14.13064,10004,WESTERN HIMALAYA,LAHAUL SPITI,32.55958,77.23726,6,3,9,,,,,ASW,ASW-03
IN,RGI50-14.13065,9886,WESTERN HIMALAYA,LAHAUL SPITI,32.55613,77.24994,6,3,9,,,,,ASW,ASW-03
IN,RGI50-14.13066,7299,WESTERN HIMALAYA,LAHAUL SPITI,32.59018,77.19992,6,3,9,,,,,ASW,ASW-03
IN,RGI50-14.13073,10139,WESTERN HIMALAYA,LAHAUL SPITI,32.79916,77.21903,6,3,9,,,,,ASW,ASW-03
IN,RGI50-14.13074,10129,WESTERN HIMALAYA,LAHAUL SPITI,32.78318,77.2117,6,3,9,,,,,ASW,ASW-03
IN,RGI50-14.13075,10125,WESTERN HIMALAYA,LAHAUL SPITI,32.77575,77.21263,6,3,9,,,,,ASW,ASW-03
IN,RGI50-14.13076,10019,WESTERN HIMALAYA,LAHAUL SPITI,32.7716,77.21744,6,3,9,,,,,ASW,ASW-03
IN,RGI50-14.13077,9608,WESTERN HIMALAYA,LAHAUL SPITI,32.7821,77.1974,6,3,9,,,,,ASW,ASW-03
IN,RGI50-14.13078,6971,WESTERN HIMALAYA,LAHAUL SPITI,32.77648,77.20303,6,3,9,,,,,ASW,ASW-03
IN,RGI50-14.13079,10128,WESTERN HIMALAYA,LAHAUL SPITI,32.75832,77.20448,6,3,9,,,,,ASW,ASW-03
IN,RGI50-14.13080,9929,WESTERN HIMALAYA,LAHAUL SPITI,32.74865,77.19936,6,3,9,,,,,ASW,ASW-03
IN,RGI50-14.13081,9769,WESTERN HIMALAYA,LAHAUL SPITI,32.74199,77.19611,6,3,9,,,,,ASW,ASW-03
IN,RGI50-14.13082,9827,WESTERN HIMALAYA,LAHAUL SPITI,32.73682,77.19798,6,3,9,,,,,ASW,ASW-03
IN,RGI50-14.13083,9998,WESTERN HIMALAYA,LAHAUL SPITI,32.74144,77.1893,6,3,9,,,,,ASW,ASW-03
IN,RGI50-14.13084,9696,WESTERN HIMALAYA,LAHAUL SPITI,32.74304,77.18331,6,3,9,,,,,ASW,ASW-03
IN,RGI50-14.13085,9930,WESTERN HIMALAYA,LAHAUL SPITI,32.74998,77.17612,6,3,9,,,,,ASW,ASW-03
IN,RGI50-14.13087,9906,WESTERN HIMALAYA,LAHAUL SPITI,32.71836,77.27639,6,3,9,,,,,ASW,ASW-03
IN,RGI50-14.13088,9843,WESTERN HIMALAYA,LAHAUL SPITI,32.71076,77.27892,6,3,9,,,,,ASW,ASW-03
IN,RGI50-14.13089,7034,WESTERN HIMALAYA,LAHAUL SPITI,32.65925,77.27917,6,3,9,,,,,ASW,ASW-03
IN,RGI50-14.13090,9527,WESTERN HIMALAYA,LAHAUL SPITI,32.67623,77.14399,6,3,9,,,,,ASW,ASW-03
IN,RGI50-14.13091,10276,WESTERN HIMALAYA,LAHAUL SPITI,32.66981,77.14049,6,3,9,,,,,ASW,ASW-03
IN,RGI50-14.13092,10088,WESTERN HIMALAYA,LAHAUL SPITI,32.66689,77.14581,6,3,9,,,,,ASW,ASW-03
IN,RGI50-14.13093,9731,WESTERN HIMALAYA,LAHAUL SPITI,32.67443,77.13503,6,3,9,,,,,ASW,ASW-03
IN,RGI50-14.13094,10152,WESTERN HIMALAYA,LAHAUL SPITI,32.65313,77.10782,6,3,9,,,,,ASW,ASW-03
IN,RGI50-14.13095,10269,WESTERN HIMALAYA,LAHAUL SPITI,32.64666,77.10186,6,3,9,,,,,ASW,ASW-03
IN,RGI50-14.13096,10037,WESTERN HIMALAYA,LAHAUL SPITI,32.63987,77.09593,6,3,9,,,,,ASW,ASW-03
IN,RGI50-14.13097,10065,WESTERN HIMALAYA,LAHAUL SPITI,32.68534,77.08953,6,3,9,,,,,ASW,ASW-03
IN,RGI50-14.13098,9919,WESTERN HIMALAYA,LAHAUL SPITI,32.68836,77.09497,6,3,9,,,,,ASW,ASW-03
IN,RGI50-14.13099,7301,WESTERN HIMALAYA,LAHAUL SPITI,32.69609,77.10743,6,3,9,,,,,ASW,ASW-03
IN,RGI50-14.13100,7246,WESTERN HIMALAYA,LAHAUL SPITI,32.69871,77.08935,6,3,9,,,,,ASW,ASW-03
IN,RGI50-14.13102,10002,WESTERN HIMALAYA,LAHAUL SPITI,32.76335,77.10216,6,3,9,,,,,ASW,ASW-03
IN,RGI50-14.13103,7190,WESTERN HIMALAYA,LAHAUL SPITI,32.75892,77.07792,6,3,9,,,,,ASW,ASW-03
IN,RGI50-14.13104,7389,WESTERN HIMALAYA,LAHAUL SPITI,32.61895,77.07088,6,3,9,,,,,ASW,ASW-03
IN,RGI50-14.13105,10225,WESTERN HIMALAYA,LAHAUL SPITI,32.63241,77.07988,6,3,9,,,,,ASW,ASW-03
IN,RGI50-14.13106,10143,WESTERN HIMALAYA,LAHAUL SPITI,32.6236,77.05822,6,3,9,,,,,ASW,ASW-03
IN,RGI50-14.13107,10069,WESTERN HIMALAYA,LAHAUL SPITI,32.62853,76.99734,6,3,9,,,,,ASW,ASW-03
IN,RGI50-14.13108,10029,WESTERN HIMALAYA,LAHAUL SPITI,32.64036,77.00323,6,3,9,,,,,ASW,ASW-03
IN,RGI50-14.13109,9942,WESTERN HIMALAYA,LAHAUL SPITI,32.6481,77.00249,6,3,9,,,,,ASW,ASW-03
IN,RGI50-14.13110,9965,WESTERN HIMALAYA,LAHAUL SPITI,32.65196,76.97927,6,3,9,,,,,ASW,ASW-03
IN,RGI50-14.13111,9977,WESTERN HIMALAYA,LAHAUL SPITI,32.65007,76.96373,6,3,9,,,,,ASW,ASW-03
IN,RGI50-14.13112,10158,WESTERN HIMALAYA,LAHAUL SPITI,32.65873,76.99194,6,3,9,,,,,ASW,ASW-03
IN,RGI50-14.13113,10332,WESTERN HIMALAYA,LAHAUL SPITI,32.67338,76.99479,6,3,9,,,,,ASW,ASW-03
IN,RGI50-14.13116,6856,WESTERN HIMALAYA,LAHAUL SPITI,32.69655,76.92319,6,3,9,,,,,ASW,ASW-03
IN,RGI50-14.13134,10095,WESTERN HIMALAYA,LAHAUL SPITI,32.66621,76.991,6,3,9,,,,,ASW,ASW-03
IN,RGI50-14.13135,10201,WESTERN HIMALAYA,LAHAUL SPITI,32.66593,76.97433,6,3,9,,,,,ASW,ASW-03
IN,RGI50-14.13136,10266,WESTERN HIMALAYA,LAHAUL SPITI,32.63053,76.99149,6,3,9,,,,,ASW,ASW-03
IN,RGI50-14.13137,9869,WESTERN HIMALAYA,LAHAUL SPITI,32.64799,76.96001,6,3,9,,,,,ASW,ASW-03
IN,RGI50-14.13138,10089,WESTERN HIMALAYA,LAHAUL SPITI,32.74619,77.06892,6,3,9,,,,,ASW,ASW-03
IN,RGI50-14.13139,9947,WESTERN HIMALAYA,LAHAUL SPITI,32.61206,77.06593,6,3,9,,,,,ASW,ASW-03
IN,RGI50-14.13140,9907,WESTERN HIMALAYA,LAHAUL SPITI,32.6619,77.13312,6,3,9,,,,,ASW,ASW-03
IN,RGI50-14.13141,9943,WESTERN HIMALAYA,LAHAUL SPITI,32.5994,77.24723,6,3,9,,,,,ASW,ASW-03
IN,RGI50-14.13142,10272,WESTERN HIMALAYA,LAHAUL SPITI,32.55447,77.20645,6,3,9,,,,,ASW,ASW-03
IN,RGI50-14.13143,10259,WESTERN HIMALAYA,LAHAUL SPITI,32.55305,77.19853,6,3,9,,,,,ASW,ASW-03
IN,RGI50-14.13144,9824,WESTERN HIMALAYA,LAHAUL SPITI,32.56221,77.20305,6,3,9,,,,,ASW,ASW-03
IN,RGI50-14.13145,10186,WESTERN HIMALAYA,LAHAUL SPITI,32.55567,77.21609,6,3,9,,,,,ASW,ASW-03
IN,RGI50-14.13146,9759,WESTERN HIMALAYA,LAHAUL SPITI,32.56783,77.20563,6,3,9,,,,,ASW,ASW-03
IN,RGI50-14.13147,9465,WESTERN HIMALAYA,LAHAUL SPITI,32.58074,77.19,6,3,9,,,,,ASW,ASW-03
IN,RGI50-14.13148,9939,WESTERN HIMALAYA,LAHAUL SPITI,32.59136,77.26329,6,3,9,,,,,ASW,ASW-03
IN,RGI50-14.13589,9617,WESTERN HIMALAYA,LAHAUL SPITI,32.81255,77.50509,6,3,9,,,,,ASW,ASW-03
IN,RGI50-14.13590,9793,WESTERN HIMALAYA,LAHAUL SPITI,32.78402,77.44872,6,3,9,,,,,ASW,ASW-03
IN,RGI50-14.13591,9905,WESTERN HIMALAYA,LAHAUL SPITI,32.81301,77.53394,6,3,9,,,,,ASW,ASW-03
IN,RGI50-14.13592,9802,WESTERN HIMALAYA,LAHAUL SPITI,32.80719,77.55538,6,3,9,,,,,ASW,ASW-03
IN,RGI50-14.13736,9918,WESTERN HIMALAYA,LAHAUL SPITI,32.6323,77.91993,6,3,9,,,,,ASW,ASW-03
IN,RGI50-14.13737,9849,WESTERN HIMALAYA,LAHAUL SPITI,32.61149,77.93781,6,3,9,,,,,ASW,ASW-03
IN,RGI50-14.13738,9840,WESTERN HIMALAYA,LAHAUL SPITI,32.64267,77.90343,6,3,9,,,,,ASW,ASW-03
IN,RGI50-14.13739,10093,WESTERN HIMALAYA,LAHAUL SPITI,32.64019,77.90932,6,3,9,,,,,ASW,ASW-03
IN,RGI50-14.13740,7322,WESTERN HIMALAYA,LAHAUL SPITI,32.60872,77.92472,6,3,9,,,,,ASW,ASW-03
IN,RGI50-14.13741,9594,WESTERN HIMALAYA,LAHAUL SPITI,32.60276,77.91012,6,3,9,,,,,ASW,ASW-03
IN,RGI50-14.13742,10127,WESTERN HIMALAYA,LAHAUL SPITI,32.60046,77.89268,6,3,9,,,,,ASW,ASW-03
IN,RGI50-14.13743,9814,WESTERN HIMALAYA,LAHAUL SPITI,32.58494,77.88885,6,3,9,,,,,ASW,ASW-03
IN,RGI50-14.13744,9743,WESTERN HIMALAYA,LAHAUL SPITI,32.58659,77.9192,6,3,9,,,,,ASW,ASW-03
IN,RGI50-14.13745,9503,WESTERN HIMALAYA,LAHAUL SPITI,32.58515,77.92866,6,3,9,,,,,ASW,ASW-03
IN,RGI50-14.13746,9932,WESTERN HIMALAYA,LAHAUL SPITI,32.58295,77.91825,6,3,9,,,,,ASW,ASW-03
IN,RGI50-14.13747,9989,WESTERN HIMALAYA,LAHAUL SPITI,32.58124,77.93665,6,3,9,,,,,ASW,ASW-03
IN,RGI50-14.13748,7314,WESTERN HIMALAYA,LAHAUL SPITI,32.57306,77.91464,6,3,9,,,,,ASW,ASW-03
IN,RGI50-14.13749,9461,WESTERN HIMALAYA,LAHAUL SPITI,32.56795,77.90089,6,3,9,,,,,ASW,ASW-03
IN,RGI50-14.13750,7191,WESTERN HIMALAYA,LAHAUL SPITI,32.58254,77.89636,6,3,9,,,,,ASW,ASW-03
IN,RGI50-14.13751,9857,WESTERN HIMALAYA,LAHAUL SPITI,32.57457,77.89022,6,3,9,,,,,ASW,ASW-03
IN,RGI50-14.13752,7348,WESTERN HIMALAYA,LAHAUL SPITI,32.57835,77.88504,6,3,9,,,,,ASW,ASW-03
IN,RGI50-14.13753,9733,WESTERN HIMALAYA,LAHAUL SPITI,32.54608,77.90803,6,3,9,,,,,ASW,ASW-03
IN,RGI50-14.13760,9796,WESTERN HIMALAYA,LAHAUL SPITI,32.52079,77.92512,6,3,9,,,,,ASW,ASW-03
IN,RGI50-14.13761,9491,WESTERN HIMALAYA,LAHAUL SPITI,32.52636,77.93211,6,3,9,,,,,ASW,ASW-03
IN,RGI50-14.13762,9555,WESTERN HIMALAYA,LAHAUL SPITI,32.52425,77.90405,6,3,9,,,,,ASW,ASW-03
IN,RGI50-14.13764,9870,WESTERN HIMALAYA,LAHAUL SPITI,32.53808,77.93385,6,3,9,,,,,ASW,ASW-03
IN,RGI50-14.13765,9570,WESTERN HIMALAYA,LAHAUL SPITI,32.54361,77.93307,6,3,9,,,,,ASW,ASW-03
IN,RGI50-14.13766,7188,WESTERN HIMALAYA,LAHAUL SPITI,32.53694,77.91702,6,3,9,,,,,ASW,ASW-03
IN,RGI50-14.13768,9691,WESTERN HIMALAYA,LAHAUL SPITI,32.55981,77.91293,6,3,9,,,,,ASW,ASW-03
IN,RGI50-14.13769,9677,WESTERN HIMALAYA,LAHAUL SPITI,32.55256,77.90639,6,3,9,,,,,ASW,ASW-03
IN,RGI50-14.13770,9610,WESTERN HIMALAYA,LAHAUL SPITI,32.56114,77.89748,6,3,9,,,,,ASW,ASW-03
IN,RGI50-14.13771,7245,WESTERN HIMALAYA,LAHAUL SPITI,32.54286,77.89156,6,3,9,,,,,ASW,ASW-03
IN,RGI50-14.13772,10005,WESTERN HIMALAYA,LAHAUL SPITI,32.54833,77.86274,6,3,9,,,,,ASW,ASW-03
IN,RGI50-14.13773,7001,WESTERN HIMALAYA,LAHAUL SPITI,32.52474,77.87159,6,3,9,,,,,ASW,ASW-03
IN,RGI50-14.13774,9571,WESTERN HIMALAYA,LAHAUL SPITI,32.55481,77.87771,6,3,9,,,,,ASW,ASW-03
IN,RGI50-14.13775,6951,WESTERN HIMALAYA,LAHAUL SPITI,32.55031,77.87614,6,3,9,,,,,ASW,ASW-03
IN,RGI50-14.13776,7054,WESTERN HIMALAYA,LAHAUL SPITI,32.54795,77.8707,6,3,9,,,,,ASW,ASW-03
IN,RGI50-14.13777,7228,WESTERN HIMALAYA,LAHAUL SPITI,32.54359,77.84969,6,3,9,,,,,ASW,ASW-03
IN,RGI50-14.13778,9643,WESTERN HIMALAYA,LAHAUL SPITI,32.52992,77.86463,6,3,9,,,,,ASW,ASW-03
IN,RGI50-14.13779,9509,WESTERN HIMALAYA,LAHAUL SPITI,32.52553,77.84687,6,3,9,,,,,ASW,ASW-03
IN,RGI50-14.13780,7280,WESTERN HIMALAYA,LAHAUL SPITI,32.53184,77.85268,6,3,9,,,,,ASW,ASW-03
IN,RGI50-14.13781,9766,WESTERN HIMALAYA,LAHAUL SPITI,32.54411,77.83202,6,3,9,,,,,ASW,ASW-03
IN,RGI50-14.13782,9773,WESTERN HIMALAYA,LAHAUL SPITI,32.48685,77.92233,6,3,9,,,,,ASW,ASW-03
IN,RGI50-14.13783,9623,WESTERN HIMALAYA,LAHAUL SPITI,32.48112,77.91182,6,3,9,,,,,ASW,ASW-03
IN,RGI50-14.13784,7031,WESTERN HIMALAYA,LAHAUL SPITI,32.50929,77.90536,6,3,9,,,,,ASW,ASW-03
IN,RGI50-14.13785,7328,WESTERN HIMALAYA,LAHAUL SPITI,32.51329,77.91699,6,3,9,,,,,ASW,ASW-03
IN,RGI50-14.13786,9811,WESTERN HIMALAYA,LAHAUL SPITI,32.50801,77.91795,6,3,9,,,,,ASW,ASW-03
IN,RGI50-14.13787,9923,WESTERN HIMALAYA,LAHAUL SPITI,32.50724,77.91318,6,3,9,,,,,ASW,ASW-03
IN,RGI50-14.13788,6892,WESTERN HIMALAYA,LAHAUL SPITI,32.51118,77.89568,6,3,9,,,,,ASW,ASW-03
IN,RGI50-14.13789,9944,WESTERN HIMALAYA,LAHAUL SPITI,32.50815,77.8939,6,3,9,,,,,ASW,ASW-03
IN,RGI50-14.13790,9911,WESTERN HIMALAYA,LAHAUL SPITI,32.50404,77.90924,6,3,9,,,,,ASW,ASW-03
IN,RGI50-14.13791,10001,WESTERN HIMALAYA,LAHAUL SPITI,32.50413,77.90481,6,3,9,,,,,ASW,ASW-03
IN,RGI50-14.13792,9583,WESTERN HIMALAYA,LAHAUL SPITI,32.49576,77.92201,6,3,9,,,,,ASW,ASW-03
IN,RGI50-14.13793,7021,WESTERN HIMALAYA,LAHAUL SPITI,32.49771,77.93003,6,3,9,,,,,ASW,ASW-03
IN,RGI50-14.13794,9727,WESTERN HIMALAYA,LAHAUL SPITI,32.4879,77.93236,6,3,9,,,,,ASW,ASW-03
IN,RGI50-14.13912,6879,WESTERN HIMALAYA,LAHAUL SPITI,32.52468,77.91249,6,3,9,,,,,ASW,ASW-03
IN,RGI50-14.13939,6936,WESTERN HIMALAYA,LAHAUL SPITI,32.50573,77.80965,6,3,9,,,,,ASW,ASW-03
IN,RGI50-14.13940,7259,WESTERN HIMALAYA,LAHAUL SPITI,32.49921,77.81697,6,3,9,,,,,ASW,ASW-03
IN,RGI50-14.13941,10242,WESTERN HIMALAYA,LAHAUL SPITI,32.49839,77.8012,6,3,9,,,,,ASW,ASW-03
IN,RGI50-14.13942,9867,WESTERN HIMALAYA,LAHAUL SPITI,32.49361,77.77783,6,3,9,,,,,ASW,ASW-03
IN,RGI50-14.13943,7062,WESTERN HIMALAYA,LAHAUL SPITI,32.47972,77.77068,6,3,9,,,,,ASW,ASW-03
IN,RGI50-14.13944,9531,WESTERN HIMALAYA,LAHAUL SPITI,32.47459,77.78064,6,3,9,,,,,ASW,ASW-03
IN,RGI50-14.13945,9481,WESTERN HIMALAYA,LAHAUL SPITI,32.4881,77.82336,6,3,9,,,,,ASW,ASW-03
IN,RGI50-14.13946,9751,WESTERN HIMALAYA,LAHAUL SPITI,32.47853,77.82673,6,3,9,,,,,ASW,ASW-03
IN,RGI50-14.13947,9606,WESTERN HIMALAYA,LAHAUL SPITI,32.50637,77.83362,6,3,9,,,,,ASW,ASW-03
IN,RGI50-14.13948,9752,WESTERN HIMALAYA,LAHAUL SPITI,32.50564,77.80061,6,3,9,,,,,ASW,ASW-03
IN,RGI50-14.13949,10243,WESTERN HIMALAYA,LAHAUL SPITI,32.50145,77.79272,6,3,9,,,,,ASW,ASW-03
IN,RGI50-14.13950,7262,WESTERN HIMALAYA,LAHAUL SPITI,32.49177,77.7914,6,3,9,,,,,ASW,ASW-03
IN,RGI50-14.13951,9829,WESTERN HIMALAYA,LAHAUL SPITI,32.52719,77.82608,6,3,9,,,,,ASW,ASW-03
IN,RGI50-14.13952,6886,WESTERN HIMALAYA,LAHAUL SPITI,32.57486,77.79475,6,3,9,,,,,ASW,ASW-03
IN,RGI50-14.13953,6986,WESTERN HIMALAYA,LAHAUL SPITI,32.53158,77.83401,6,3,9,,,,,ASW,ASW-03
IN,RGI50-14.13954,10087,WESTERN HIMALAYA,LAHAUL SPITI,32.56145,77.82763,6,3,9,,,,,ASW,ASW-03
IN,RGI50-14.13955,9505,WESTERN HIMALAYA,LAHAUL SPITI,32.55333,77.82387,6,3,9,,,,,ASW,ASW-03
IN,RGI50-14.13956,9601,WESTERN HIMALAYA,LAHAUL SPITI,32.54197,77.80804,6,3,9,,,,,ASW,ASW-03
IN,RGI50-14.13957,7095,WESTERN HIMALAYA,LAHAUL SPITI,32.55382,77.79971,6,3,9,,,,,ASW,ASW-03
IN,RGI50-14.13958,9719,WESTERN HIMALAYA,LAHAUL SPITI,32.54237,77.80273,6,3,9,,,,,ASW,ASW-03
IN,RGI50-14.13959,7260,WESTERN HIMALAYA,LAHAUL SPITI,32.55166,77.8103,6,3,9,,,,,ASW,ASW-03
IN,RGI50-14.13960,9775,WESTERN HIMALAYA,LAHAUL SPITI,32.57491,77.82465,6,3,9,,,,,ASW,ASW-03
IN,RGI50-14.13961,9807,WESTERN HIMALAYA,LAHAUL SPITI,32.55991,77.79018,6,3,9,,,,,ASW,ASW-03
IN,RGI50-14.13962,7249,WESTERN HIMALAYA,LAHAUL SPITI,32.56222,77.78317,6,3,9,,,,,ASW,ASW-03
IN,RGI50-14.13963,7254,WESTERN HIMALAYA,LAHAUL SPITI,32.57477,77.77367,6,3,9,,,,,ASW,ASW-03
IN,RGI50-14.13964,10063,WESTERN HIMALAYA,LAHAUL SPITI,32.56998,77.75847,6,3,9,,,,,ASW,ASW-03
IN,RGI50-14.13965,9997,WESTERN HIMALAYA,LAHAUL SPITI,32.60267,77.73686,6,3,9,,,,,ASW,ASW-03
IN,RGI50-14.13966,7189,WESTERN HIMALAYA,LAHAUL SPITI,32.58662,77.75069,6,3,9,,,,,ASW,ASW-03
IN,RGI50-14.13967,10046,WESTERN HIMALAYA,LAHAUL SPITI,32.59808,77.75748,6,3,9,,,,,ASW,ASW-03
IN,RGI50-14.13968,9856,WESTERN HIMALAYA,LAHAUL SPITI,32.5972,77.75543,6,3,9,,,,,ASW,ASW-03
IN,RGI50-14.13969,9524,WESTERN HIMALAYA,LAHAUL SPITI,32.60164,77.75234,6,3,9,,,,,ASW,ASW-03
IN,RGI50-14.13970,7317,WESTERN HIMALAYA,LAHAUL SPITI,32.59932,77.72703,6,3,9,,,,,ASW,ASW-03
IN,RGI50-14.13971,9985,WESTERN HIMALAYA,LAHAUL SPITI,32.61433,77.73824,6,3,9,,,,,ASW,ASW-03
IN,RGI50-14.13972,9828,WESTERN HIMALAYA,LAHAUL SPITI,32.61796,77.73695,6,3,9,,,,,ASW,ASW-03
IN,RGI50-14.13973,7074,WESTERN HIMALAYA,LAHAUL SPITI,32.61658,77.73206,6,3,9,,,,,ASW,ASW-03
IN,RGI50-14.13974,9933,WESTERN HIMALAYA,LAHAUL SPITI,32.60736,77.74723,6,3,9,,,,,ASW,ASW-03
IN,RGI50-14.13975,7071,WESTERN HIMALAYA,LAHAUL SPITI,32.60974,77.74436,6,3,9,,,,,ASW,ASW-03
IN,RGI50-14.13976,9859,WESTERN HIMALAYA,LAHAUL SPITI,32.6723,77.83843,6,3,9,,,,,ASW,ASW-03
IN,RGI50-14.13977,9697,WESTERN HIMALAYA,LAHAUL SPITI,32.66752,77.84357,6,3,9,,,,,ASW,ASW-03
IN,RGI50-14.13978,9549,WESTERN HIMALAYA,LAHAUL SPITI,32.67075,77.85437,6,3,9,,,,,ASW,ASW-03
IN,RGI50-14.13979,9803,WESTERN HIMALAYA,LAHAUL SPITI,32.6206,77.83073,6,3,9,,,,,ASW,ASW-03
IN,RGI50-14.13980,7288,WESTERN HIMALAYA,LAHAUL SPITI,32.62434,77.81776,6,3,9,,,,,ASW,ASW-03
IN,RGI50-14.13981,7235,WESTERN HIMALAYA,LAHAUL SPITI,32.62029,77.79346,6,3,9,,,,,ASW,ASW-03
IN,RGI50-14.13982,9854,WESTERN HIMALAYA,LAHAUL SPITI,32.63429,77.81778,6,3,9,,,,,ASW,ASW-03
IN,RGI50-14.13983,9865,WESTERN HIMALAYA,LAHAUL SPITI,32.63013,77.81518,6,3,9,,,,,ASW,ASW-03
IN,RGI50-14.13984,9598,WESTERN HIMALAYA,LAHAUL SPITI,32.63253,77.80965,6,3,9,,,,,ASW,ASW-03
IN,RGI50-14.13985,9662,WESTERN HIMALAYA,LAHAUL SPITI,32.65366,77.80678,6,3,9,,,,,ASW,ASW-03
IN,RGI50-14.13986,9925,WESTERN HIMALAYA,LAHAUL SPITI,32.64846,77.80228,6,3,9,,,,,ASW,ASW-03
IN,RGI50-14.13987,9639,WESTERN HIMALAYA,LAHAUL SPITI,32.6494,77.81303,6,3,9,,,,,ASW,ASW-03
IN,RGI50-14.13988,7185,WESTERN HIMALAYA,LAHAUL SPITI,32.64506,77.78123,6,3,9,,,,,ASW,ASW-03
IN,RGI50-14.13989,9978,WESTERN HIMALAYA,LAHAUL SPITI,32.70503,77.79974,6,3,9,,,,,ASW,ASW-03
IN,RGI50-14.13990,9928,WESTERN HIMALAYA,LAHAUL SPITI,32.69719,77.80721,6,3,9,,,,,ASW,ASW-03
IN,RGI50-14.13991,10064,WESTERN HIMALAYA,LAHAUL SPITI,32.66378,77.77715,6,3,9,,,,,ASW,ASW-03
IN,RGI50-14.13992,7038,WESTERN HIMALAYA,LAHAUL SPITI,32.66892,77.78172,6,3,9,,,,,ASW,ASW-03
IN,RGI50-14.13993,9511,WESTERN HIMALAYA,LAHAUL SPITI,32.68149,77.80749,6,3,9,,,,,ASW,ASW-03
IN,RGI50-14.13994,9517,WESTERN HIMALAYA,LAHAUL SPITI,32.68259,77.80023,6,3,9,,,,,ASW,ASW-03
IN,RGI50-14.13995,7388,WESTERN HIMALAYA,LAHAUL SPITI,32.67674,77.78201,6,3,9,,,,,ASW,ASW-03
IN,RGI50-14.13996,9940,WESTERN HIMALAYA,LAHAUL SPITI,32.67437,77.79036,6,3,9,,,,,ASW,ASW-03
IN,RGI50-14.13997,7354,WESTERN HIMALAYA,LAHAUL SPITI,32.6809,77.78996,6,3,9,,,,,ASW,ASW-03
IN,RGI50-14.13998,6978,WESTERN HIMALAYA,LAHAUL SPITI,32.64207,77.75333,6,3,9,,,,,ASW,ASW-03
IN,RGI50-14.13999,6976,WESTERN HIMALAYA,LAHAUL SPITI,32.638,77.75116,6,3,9,,,,,ASW,ASW-03
IN,RGI50-14.14000,9568,WESTERN HIMALAYA,LAHAUL SPITI,32.7037,77.75346,6,3,9,,,,,ASW,ASW-03
IN,RGI50-14.14001,6993,WESTERN HIMALAYA,LAHAUL SPITI,32.69463,77.74636,6,3,9,,,,,ASW,ASW-03
IN,RGI50-14.14002,9991,WESTERN HIMALAYA,LAHAUL SPITI,32.68575,77.72614,6,3,9,,,,,ASW,ASW-03
IN,RGI50-14.14003,10013,WESTERN HIMALAYA,LAHAUL SPITI,32.67556,77.73296,6,3,9,,,,,ASW,ASW-03
IN,RGI50-14.14004,9864,WESTERN HIMALAYA,LAHAUL SPITI,32.68989,77.72182,6,3,9,,,,,ASW,ASW-03
IN,RGI50-14.14005,7088,WESTERN HIMALAYA,LAHAUL SPITI,32.65499,77.76702,6,3,9,,,,,ASW,ASW-03
IN,RGI50-14.14006,7309,WESTERN HIMALAYA,LAHAUL SPITI,32.6557,77.74727,6,3,9,,,,,ASW,ASW-03
IN,RGI50-14.14007,9882,WESTERN HIMALAYA,LAHAUL SPITI,32.66683,77.7475,6,3,9,,,,,ASW,ASW-03
IN,RGI50-14.14008,7356,WESTERN HIMALAYA,LAHAUL SPITI,32.66434,77.75832,6,3,9,,,,,ASW,ASW-03
IN,RGI50-14.14009,7281,WESTERN HIMALAYA,LAHAUL SPITI,32.6761,77.74076,6,3,9,,,,,ASW,ASW-03
IN,RGI50-14.14010,6884,WESTERN HIMALAYA,LAHAUL SPITI,32.67801,77.74838,6,3,9,,,,,ASW,ASW-03
IN,RGI50-14.14011,6919,WESTERN HIMALAYA,LAHAUL SPITI,32.70114,77.75012,6,3,9,,,,,ASW,ASW-03
IN,RGI50-14.14012,9681,WESTERN HIMALAYA,LAHAUL SPITI,32.62033,77.69239,6,3,9,,,,,ASW,ASW-03
IN,RGI50-14.14013,9497,WESTERN HIMALAYA,LAHAUL SPITI,32.62528,77.69484,6,3,9,,,,,ASW,ASW-03
IN,RGI50-14.14014,9894,WESTERN HIMALAYA,LAHAUL SPITI,32.63219,77.71437,6,3,9,,,,,ASW,ASW-03
IN,RGI50-14.14015,10052,WESTERN HIMALAYA,LAHAUL SPITI,32.63136,77.71085,6,3,9,,,,,ASW,ASW-03
IN,RGI50-14.14016,9483,WESTERN HIMALAYA,LAHAUL SPITI,32.63615,77.71815,6,3,9,,,,,ASW,ASW-03
IN,RGI50-14.14017,7338,WESTERN HIMALAYA,LAHAUL SPITI,32.63219,77.69979,6,3,9,,,,,ASW,ASW-03
IN,RGI50-14.14018,7226,WESTERN HIMALAYA,LAHAUL SPITI,32.64227,77.7039,6,3,9,,,,,ASW,ASW-03
IN,RGI50-14.14019,9748,WESTERN HIMALAYA,LAHAUL SPITI,32.65023,77.69318,6,3,9,,,,,ASW,ASW-03
IN,RGI50-14.14020,9656,WESTERN HIMALAYA,LAHAUL SPITI,32.64591,77.68726,6,3,9,,,,,ASW,ASW-03
IN,RGI50-14.14021,9770,WESTERN HIMALAYA,LAHAUL SPITI,32.63691,77.68375,6,3,9,,,,,ASW,ASW-03
IN,RGI50-14.14022,7178,WESTERN HIMALAYA,LAHAUL SPITI,32.63471,77.67292,6,2,9,,,,,ASW,ASW-03
IN,RGI50-14.14023,9506,WESTERN HIMALAYA,LAHAUL SPITI,32.65601,77.66766,6,3,9,,,,,ASW,ASW-03
IN,RGI50-14.14024,7108,WESTERN HIMALAYA,LAHAUL SPITI,32.64813,77.65457,6,3,9,,,,,ASW,ASW-03
IN,RGI50-14.14025,10042,WESTERN HIMALAYA,LAHAUL SPITI,32.77459,77.75368,6,3,9,,,,,ASW,ASW-03
IN,RGI50-14.14026,9961,WESTERN HIMALAYA,LAHAUL SPITI,32.76222,77.72902,6,3,9,,,,,ASW,ASW-03
IN,RGI50-14.14027,9717,WESTERN HIMALAYA,LAHAUL SPITI,32.75701,77.72701,6,3,9,,,,,ASW,ASW-03
IN,RGI50-14.14028,9661,WESTERN HIMALAYA,LAHAUL SPITI,32.73872,77.71946,6,3,9,,,,,ASW,ASW-03
IN,RGI50-14.14029,6991,WESTERN HIMALAYA,LAHAUL SPITI,32.68938,77.6502,6,3,9,,,,,ASW,ASW-03
IN,RGI50-14.14030,9838,WESTERN HIMALAYA,LAHAUL SPITI,32.68635,77.66856,6,3,9,,,,,ASW,ASW-03
IN,RGI50-14.14031,6888,WESTERN HIMALAYA,LAHAUL SPITI,32.68926,77.632,6,3,9,,,,,ASW,ASW-03
IN,RGI50-14.14032,9627,WESTERN HIMALAYA,LAHAUL SPITI,32.68677,77.64198,6,3,9,,,,,ASW,ASW-03
IN,RGI50-14.14033,9642,WESTERN HIMALAYA,LAHAUL SPITI,32.68568,77.65759,6,3,9,,,,,ASW,ASW-03
IN,RGI50-14.14034,9559,WESTERN HIMALAYA,LAHAUL SPITI,32.67595,77.60298,6,3,9,,,,,ASW,ASW-03
IN,RGI50-14.14035,9476,WESTERN HIMALAYA,LAHAUL SPITI,32.68279,77.59828,6,3,9,,,,,ASW,ASW-03
IN,RGI50-14.14036,9569,WESTERN HIMALAYA,LAHAUL SPITI,32.68279,77.62881,6,3,9,,,,,ASW,ASW-03
IN,RGI50-14.14037,9492,WESTERN HIMALAYA,LAHAUL SPITI,32.67156,77.62975,6,3,9,,,,,ASW,ASW-03
IN,RGI50-14.14038,7073,WESTERN HIMALAYA,LAHAUL SPITI,32.66395,77.6347,6,3,9,,,,,ASW,ASW-03
IN,RGI50-14.14039,7271,WESTERN HIMALAYA,LAHAUL SPITI,32.65324,77.62847,6,3,9,,,,,ASW,ASW-03
IN,RGI50-14.14040,7216,WESTERN HIMALAYA,LAHAUL SPITI,32.66534,77.6109,6,3,9,,,,,ASW,ASW-03
IN,RGI50-14.14041,7327,WESTERN HIMALAYA,LAHAUL SPITI,32.6437,77.60024,6,3,9,,,,,ASW,ASW-03
IN,RGI50-14.14042,9846,WESTERN HIMALAYA,LAHAUL SPITI,32.52689,77.69274,6,3,9,,,,,ASW,ASW-03
IN,RGI50-14.14043,9520,WESTERN HIMALAYA,LAHAUL SPITI,32.6263,77.6588,6,3,9,,,,,ASW,ASW-03
IN,RGI50-14.14044,9872,WESTERN HIMALAYA,LAHAUL SPITI,32.56199,77.60668,6,3,9,,,,,ASW,ASW-03
IN,RGI50-14.14045,9618,WESTERN HIMALAYA,LAHAUL SPITI,32.5558,77.60406,6,3,9,,,,,ASW,ASW-03
IN,RGI50-14.14046,9629,WESTERN HIMALAYA,LAHAUL SPITI,32.5397,77.60336,6,3,9,,,,,ASW,ASW-03
IN,RGI50-14.14047,10165,WESTERN HIMALAYA,LAHAUL SPITI,32.62514,77.65089,6,3,9,,,,,ASW,ASW-03
IN,RGI50-14.14048,7272,WESTERN HIMALAYA,LAHAUL SPITI,32.62885,77.63097,6,3,9,,,,,ASW,ASW-03
IN,RGI50-14.14049,10077,WESTERN HIMALAYA,LAHAUL SPITI,32.60548,77.65601,6,3,9,,,,,ASW,ASW-03
IN,RGI50-14.14050,9737,WESTERN HIMALAYA,LAHAUL SPITI,32.58184,77.65749,6,3,9,,,,,ASW,ASW-03
IN,RGI50-14.14051,7362,WESTERN HIMALAYA,LAHAUL SPITI,32.58178,77.64446,6,3,9,,,,,ASW,ASW-03
IN,RGI50-14.14052,10034,WESTERN HIMALAYA,LAHAUL SPITI,32.57511,77.64105,6,3,9,,,,,ASW,ASW-03
IN,RGI50-14.14053,7385,WESTERN HIMALAYA,LAHAUL SPITI,32.56979,77.67755,6,3,9,,,,,ASW,ASW-03
IN,RGI50-14.14054,9454,WESTERN HIMALAYA,LAHAUL SPITI,32.55807,77.70037,6,3,9,,,,,ASW,ASW-03
IN,RGI50-14.14055,7255,WESTERN HIMALAYA,LAHAUL SPITI,32.5984,77.63426,6,3,9,,,,,ASW,ASW-03
IN,RGI50-14.14056,7024,WESTERN HIMALAYA,LAHAUL SPITI,32.59468,77.62352,6,3,9,,,,,ASW,ASW-03
IN,RGI50-14.14057,9518,WESTERN HIMALAYA,LAHAUL SPITI,32.58681,77.63039,6,3,9,,,,,ASW,ASW-03
IN,RGI50-14.14058,6896,WESTERN HIMALAYA,LAHAUL SPITI,32.58528,77.63329,6,3,9,,,,,ASW,ASW-03
IN,RGI50-14.14059,7234,WESTERN HIMALAYA,LAHAUL SPITI,32.58281,77.61379,6,3,9,,,,,ASW,ASW-03
IN,RGI50-14.14060,9456,WESTERN HIMALAYA,LAHAUL SPITI,32.56819,77.60789,6,3,9,,,,,ASW,ASW-03
IN,RGI50-14.14061,9964,WESTERN HIMALAYA,LAHAUL SPITI,32.55208,77.6039,6,3,9,,,,,ASW,ASW-03
IN,RGI50-14.14062,9574,WESTERN HIMALAYA,LAHAUL SPITI,32.54581,77.60485,6,3,9,,,,,ASW,ASW-03
IN,RGI50-14.14063,7242,WESTERN HIMALAYA,LAHAUL SPITI,32.53185,77.61136,6,3,9,,,,,ASW,ASW-03
IN,RGI50-14.14064,7393,WESTERN HIMALAYA,LAHAUL SPITI,32.52248,77.71114,6,3,9,,,,,ASW,ASW-03
IN,RGI50-14.14065,7347,WESTERN HIMALAYA,LAHAUL SPITI,32.51935,77.69534,6,3,9,,,,,ASW,ASW-03
IN,RGI50-14.14066,9791,WESTERN HIMALAYA,LAHAUL SPITI,32.51099,77.70593,6,3,9,,,,,ASW,ASW-03
IN,RGI50-14.14067,9753,WESTERN HIMALAYA,LAHAUL SPITI,32.50279,77.70864,6,3,9,,,,,ASW,ASW-03
IN,RGI50-14.14068,9819,WESTERN HIMALAYA,LAHAUL SPITI,32.50049,77.71241,6,3,9,,,,,ASW,ASW-03
IN,RGI50-14.14069,7069,WESTERN HIMALAYA,LAHAUL SPITI,32.53249,77.70676,6,3,9,,,,,ASW,ASW-03
IN,RGI50-14.14070,7318,WESTERN HIMALAYA,LAHAUL SPITI,32.54195,77.69995,6,3,9,,,,,ASW,ASW-03
IN,RGI50-14.14071,10270,WESTERN HIMALAYA,LAHAUL SPITI,32.54241,77.68729,6,3,9,,,,,ASW,ASW-03
IN,RGI50-14.14072,7035,WESTERN HIMALAYA,LAHAUL SPITI,32.54597,77.68059,6,3,9,,,,,ASW,ASW-03
IN,RGI50-14.14073,6923,WESTERN HIMALAYA,LAHAUL SPITI,32.55197,77.69364,6,3,9,,,,,ASW,ASW-03
IN,RGI50-14.14074,7375,WESTERN HIMALAYA,LAHAUL SPITI,32.55415,77.6823,6,3,9,,,,,ASW,ASW-03
IN,RGI50-14.14075,9462,WESTERN HIMALAYA,LAHAUL SPITI,32.56398,77.69113,6,3,9,,,,,ASW,ASW-03
IN,RGI50-14.14076,9755,WESTERN HIMALAYA,LAHAUL SPITI,32.58239,77.66563,6,3,9,,,,,ASW,ASW-03
IN,RGI50-14.14077,7237,WESTERN HIMALAYA,LAHAUL SPITI,32.59048,77.6721,6,3,9,,,,,ASW,ASW-03
IN,RGI50-14.14078,9855,WESTERN HIMALAYA,LAHAUL SPITI,32.57932,77.67025,6,3,9,,,,,ASW,ASW-03
IN,RGI50-14.14079,7397,WESTERN HIMALAYA,LAHAUL SPITI,32.57897,77.67625,6,3,9,,,,,ASW,ASW-03
IN,RGI50-14.14080,7340,WESTERN HIMALAYA,LAHAUL SPITI,32.58639,77.6534,6,3,9,,,,,ASW,ASW-03
IN,RGI50-14.14081,7266,WESTERN HIMALAYA,LAHAUL SPITI,32.59959,77.65652,6,3,9,,,,,ASW,ASW-03
IN,RGI50-14.14082,7227,WESTERN HIMALAYA,LAHAUL SPITI,32.61536,77.65156,6,3,9,,,,,ASW,ASW-03
IN,RGI50-14.14083,9834,WESTERN HIMALAYA,LAHAUL SPITI,32.61918,77.6246,6,3,9,,,,,ASW,ASW-03
IN,RGI50-14.14084,9955,WESTERN HIMALAYA,LAHAUL SPITI,32.61525,77.63348,6,3,9,,,,,ASW,ASW-03
IN,RGI50-14.14085,7090,WESTERN HIMALAYA,LAHAUL SPITI,32.62148,77.62205,6,3,9,,,,,ASW,ASW-03
IN,RGI50-14.14086,9820,WESTERN HIMALAYA,LAHAUL SPITI,32.48606,77.81228,6,3,9,,,,,ASW,ASW-03
IN,RGI50-14.14087,10030,WESTERN HIMALAYA,LAHAUL SPITI,32.48362,77.81178,6,3,9,,,,,ASW,ASW-03
IN,RGI50-14.14088,9909,WESTERN HIMALAYA,LAHAUL SPITI,32.48243,77.78687,6,3,9,,,,,ASW,ASW-03
IN,RGI50-14.14089,9640,WESTERN HIMALAYA,LAHAUL SPITI,32.47526,77.64153,6,3,9,,,,,ASW,ASW-03
IN,RGI50-14.14090,6979,WESTERN HIMALAYA,LAHAUL SPITI,32.50815,77.63329,6,3,9,,,,,ASW,ASW-03
IN,RGI50-14.14091,9822,WESTERN HIMALAYA,LAHAUL SPITI,32.51288,77.63685,6,3,9,,,,,ASW,ASW-03
IN,RGI50-14.14092,9764,WESTERN HIMALAYA,LAHAUL SPITI,32.59283,77.59868,6,3,9,,,,,ASW,ASW-03
IN,RGI50-14.14093,9660,WESTERN HIMALAYA,LAHAUL SPITI,32.57448,77.57549,6,3,9,,,,,ASW,ASW-03
IN,RGI50-14.14094,9615,WESTERN HIMALAYA,LAHAUL SPITI,32.58165,77.59802,6,3,9,,,,,ASW,ASW-03
IN,RGI50-14.14095,7384,WESTERN HIMALAYA,LAHAUL SPITI,32.56618,77.59397,6,3,9,,,,,ASW,ASW-03
IN,RGI50-14.14096,7195,WESTERN HIMALAYA,LAHAUL SPITI,32.55789,77.58635,6,3,9,,,,,ASW,ASW-03
IN,RGI50-14.14097,9693,WESTERN HIMALAYA,LAHAUL SPITI,32.56307,77.54124,6,3,9,,,,,ASW,ASW-03
IN,RGI50-14.14098,7094,WESTERN HIMALAYA,LAHAUL SPITI,32.56839,77.54952,6,3,9,,,,,ASW,ASW-03
IN,RGI50-14.14099,9507,WESTERN HIMALAYA,LAHAUL SPITI,32.57655,77.5405,6,3,9,,,,,ASW,ASW-03
IN,RGI50-14.14100,9739,WESTERN HIMALAYA,LAHAUL SPITI,32.66586,77.5992,6,3,9,,,,,ASW,ASW-03
IN,RGI50-14.14101,9535,WESTERN HIMALAYA,LAHAUL SPITI,32.63334,77.59223,6,3,9,,,,,ASW,ASW-03
IN,RGI50-14.14102,7380,WESTERN HIMALAYA,LAHAUL SPITI,32.63973,77.59456,6,3,9,,,,,ASW,ASW-03
IN,RGI50-14.14103,9938,WESTERN HIMALAYA,LAHAUL SPITI,32.65205,77.51579,6,3,9,,,,,ASW,ASW-03
IN,RGI50-14.14104,9705,WESTERN HIMALAYA,LAHAUL SPITI,32.63322,77.5174,6,3,9,,,,,ASW,ASW-03
IN,RGI50-14.14105,6927,WESTERN HIMALAYA,LAHAUL SPITI,32.65935,77.60434,6,3,9,,,,,ASW,ASW-03
IN,RGI50-14.14106,7221,WESTERN HIMALAYA,LAHAUL SPITI,32.65808,77.59013,6,3,9,,,,,ASW,ASW-03
IN,RGI50-14.14107,7220,WESTERN HIMALAYA,LAHAUL SPITI,32.6511,77.61047,6,3,9,,,,,ASW,ASW-03
IN,RGI50-14.14108,7251,WESTERN HIMALAYA,LAHAUL SPITI,32.65339,77.57639,6,3,9,,,,,ASW,ASW-03
IN,RGI50-14.14109,9883,WESTERN HIMALAYA,LAHAUL SPITI,32.61789,77.56846,6,3,9,,,,,ASW,ASW-03
IN,RGI50-14.14110,10277,WESTERN HIMALAYA,LAHAUL SPITI,32.62339,77.57227,6,3,9,,,,,ASW,ASW-03
IN,RGI50-14.14111,10033,WESTERN HIMALAYA,LAHAUL SPITI,32.62551,77.58028,6,3,9,,,,,ASW,ASW-03
IN,RGI50-14.14112,7205,WESTERN HIMALAYA,LAHAUL SPITI,32.64272,77.53538,6,3,9,,,,,ASW,ASW-03
IN,RGI50-14.14113,7144,WESTERN HIMALAYA,LAHAUL SPITI,32.63649,77.56365,6,2,9,,,,,ASW,ASW-03
IN,RGI50-14.14114,7075,WESTERN HIMALAYA,LAHAUL SPITI,32.64874,77.52409,6,3,9,,,,,ASW,ASW-03
IN,RGI50-14.14115,7098,WESTERN HIMALAYA,LAHAUL SPITI,32.64372,77.50775,6,3,9,,,,,ASW,ASW-03
IN,RGI50-14.14116,7058,WESTERN HIMALAYA,LAHAUL SPITI,32.66327,77.51012,6,3,9,,,,,ASW,ASW-03
IN,RGI50-14.14117,9646,WESTERN HIMALAYA,LAHAUL SPITI,32.6688,77.51694,6,3,9,,,,,ASW,ASW-03
IN,RGI50-14.14118,9652,WESTERN HIMALAYA,LAHAUL SPITI,32.66885,77.50179,6,3,9,,,,,ASW,ASW-03
IN,RGI50-14.14119,9626,WESTERN HIMALAYA,LAHAUL SPITI,32.66062,77.5209,6,3,9,,,,,ASW,ASW-03
IN,RGI50-14.14120,6905,WESTERN HIMALAYA,LAHAUL SPITI,32.67323,77.59547,6,3,9,,,,,ASW,ASW-03
IN,RGI50-14.14121,9625,WESTERN HIMALAYA,LAHAUL SPITI,32.6777,77.59373,6,3,9,,,,,ASW,ASW-03
IN,RGI50-14.14122,9587,WESTERN HIMALAYA,LAHAUL SPITI,32.68998,77.54188,6,3,9,,,,,ASW,ASW-03
IN,RGI50-14.14123,9592,WESTERN HIMALAYA,LAHAUL SPITI,32.71121,77.58025,6,3,9,,,,,ASW,ASW-03
IN,RGI50-14.14124,9810,WESTERN HIMALAYA,LAHAUL SPITI,32.70439,77.55412,6,3,9,,,,,ASW,ASW-03
IN,RGI50-14.14125,9800,WESTERN HIMALAYA,LAHAUL SPITI,32.70504,77.54895,6,3,9,,,,,ASW,ASW-03
IN,RGI50-14.14126,7358,WESTERN HIMALAYA,LAHAUL SPITI,32.68408,77.55166,6,3,9,,,,,ASW,ASW-03
IN,RGI50-14.14127,9957,WESTERN HIMALAYA,LAHAUL SPITI,32.68275,77.58348,6,3,9,,,,,ASW,ASW-03
IN,RGI50-14.14128,7105,WESTERN HIMALAYA,LAHAUL SPITI,32.68902,77.56799,6,3,9,,,,,ASW,ASW-03
IN,RGI50-14.14129,7177,WESTERN HIMALAYA,LAHAUL SPITI,32.70208,77.58983,6,2,9,,,,,ASW,ASW-03
IN,RGI50-14.14130,7387,WESTERN HIMALAYA,LAHAUL SPITI,32.7081,77.57198,6,3,9,,,,,ASW,ASW-03
IN,RGI50-14.14131,9726,WESTERN HIMALAYA,LAHAUL SPITI,32.70889,77.55511,6,3,9,,,,,ASW,ASW-03
IN,RGI50-14.14132,7044,WESTERN HIMALAYA,LAHAUL SPITI,32.70662,77.56165,6,3,9,,,,,ASW,ASW-03
IN,RGI50-14.14133,9588,WESTERN HIMALAYA,LAHAUL SPITI,32.72567,77.62159,6,3,9,,,,,ASW,ASW-03
IN,RGI50-14.14134,9672,WESTERN HIMALAYA,LAHAUL SPITI,32.71736,77.6294,6,3,9,,,,,ASW,ASW-03
IN,RGI50-14.14135,9995,WESTERN HIMALAYA,LAHAUL SPITI,32.72122,77.6273,6,3,9,,,,,ASW,ASW-03
IN,RGI50-14.14136,7089,WESTERN HIMALAYA,LAHAUL SPITI,32.7122,77.61413,6,3,9,,,,,ASW,ASW-03
IN,RGI50-14.14137,6972,WESTERN HIMALAYA,LAHAUL SPITI,32.73469,77.59283,6,3,9,,,,,ASW,ASW-03
IN,RGI50-14.14138,10074,WESTERN HIMALAYA,LAHAUL SPITI,32.7394,77.59672,6,3,9,,,,,ASW,ASW-03
IN,RGI50-14.14139,9884,WESTERN HIMALAYA,LAHAUL SPITI,32.78924,77.5799,6,3,9,,,,,ASW,ASW-03
IN,RGI50-14.14140,9499,WESTERN HIMALAYA,LAHAUL SPITI,32.80412,77.53678,6,3,9,,,,,ASW,ASW-03
IN,RGI50-14.14141,9786,WESTERN HIMALAYA,LAHAUL SPITI,32.77708,77.57684,6,3,9,,,,,ASW,ASW-03
IN,RGI50-14.14142,9519,WESTERN HIMALAYA,LAHAUL SPITI,32.78024,77.5783,6,3,9,,,,,ASW,ASW-03
IN,RGI50-14.14143,9959,WESTERN HIMALAYA,LAHAUL SPITI,32.784,77.58392,6,3,9,,,,,ASW,ASW-03
IN,RGI50-14.14144,7083,WESTERN HIMALAYA,LAHAUL SPITI,32.7803,77.5899,6,3,9,,,,,ASW,ASW-03
IN,RGI50-14.14145,9553,WESTERN HIMALAYA,LAHAUL SPITI,32.76807,77.5507,6,3,9,,,,,ASW,ASW-03
IN,RGI50-14.14146,9861,WESTERN HIMALAYA,LAHAUL SPITI,32.79671,77.53886,6,3,9,,,,,ASW,ASW-03
IN,RGI50-14.14147,9761,WESTERN HIMALAYA,LAHAUL SPITI,32.79653,77.55117,6,3,9,,,,,ASW,ASW-03
IN,RGI50-14.14148,7367,WESTERN HIMALAYA,LAHAUL SPITI,32.79475,77.54541,6,3,9,,,,,ASW,ASW-03
IN,RGI50-14.14149,6889,WESTERN HIMALAYA,LAHAUL SPITI,32.81342,77.50971,6,3,9,,,,,ASW,ASW-03
IN,RGI50-14.14150,9595,WESTERN HIMALAYA,LAHAUL SPITI,32.69966,77.48,6,3,9,,,,,ASW,ASW-03
IN,RGI50-14.14151,7386,WESTERN HIMALAYA,LAHAUL SPITI,32.70693,77.4813,6,3,9,,,,,ASW,ASW-03
IN,RGI50-14.14152,7353,WESTERN HIMALAYA,LAHAUL SPITI,32.71655,77.49113,6,3,9,,,,,ASW,ASW-03
IN,RGI50-14.14153,7164,WESTERN HIMALAYA,LAHAUL SPITI,32.74448,77.50104,6,2,9,,,,,ASW,ASW-03
IN,RGI50-14.14154,7377,WESTERN HIMALAYA,LAHAUL SPITI,32.71308,77.51634,6,3,9,,,,,ASW,ASW-03
IN,RGI50-14.14155,7109,WESTERN HIMALAYA,LAHAUL SPITI,32.72958,77.52215,6,3,9,,,,,ASW,ASW-03
IN,RGI50-14.14156,7337,WESTERN HIMALAYA,LAHAUL SPITI,32.75167,77.52513,6,3,9,,,,,ASW,ASW-03
IN,RGI50-14.14157,9663,WESTERN HIMALAYA,LAHAUL SPITI,32.74429,77.46017,6,3,9,,,,,ASW,ASW-03
IN,RGI50-14.14158,7015,WESTERN HIMALAYA,LAHAUL SPITI,32.74254,77.45258,6,3,9,,,,,ASW,ASW-03
IN,RGI50-14.14159,6935,WESTERN HIMALAYA,LAHAUL SPITI,32.75426,77.44703,6,3,9,,,,,ASW,ASW-03
IN,RGI50-14.14160,7104,WESTERN HIMALAYA,LAHAUL SPITI,32.71969,77.4709,6,3,9,,,,,ASW,ASW-03
IN,RGI50-14.14161,7229,WESTERN HIMALAYA,LAHAUL SPITI,32.75619,77.48338,6,3,9,,,,,ASW,ASW-03
IN,RGI50-14.14162,7053,WESTERN HIMALAYA,LAHAUL SPITI,32.76929,77.44557,6,3,9,,,,,ASW,ASW-03
IN,RGI50-14.14163,9477,WESTERN HIMALAYA,LAHAUL SPITI,32.77933,77.45703,6,3,9,,,,,ASW,ASW-03
IN,RGI50-14.14164,7183,WESTERN HIMALAYA,LAHAUL SPITI,32.76147,77.46388,6,3,9,,,,,ASW,ASW-03
IN,RGI50-14.14165,7326,WESTERN HIMALAYA,LAHAUL SPITI,32.76908,77.52065,6,3,9,,,,,ASW,ASW-03
IN,RGI50-14.14166,9482,WESTERN HIMALAYA,LAHAUL SPITI,32.76355,77.52589,6,3,9,,,,,ASW,ASW-03
IN,RGI50-14.14167,7107,WESTERN HIMALAYA,LAHAUL SPITI,32.73621,77.476,6,3,9,,,,,ASW,ASW-03
IN,RGI50-14.14168,7264,WESTERN HIMALAYA,LAHAUL SPITI,32.72218,77.50367,6,3,9,,,,,ASW,ASW-03
IN,RGI50-14.14169,9776,WESTERN HIMALAYA,LAHAUL SPITI,32.74517,77.48731,6,3,9,,,,,ASW,ASW-03
IN,RGI50-14.14268,9539,WESTERN HIMALAYA,LAHAUL SPITI,32.81737,77.3754,6,3,9,,,,,ASW,ASW-03
IN,RGI50-14.14269,7199,WESTERN HIMALAYA,LAHAUL SPITI,32.82255,77.38746,6,3,9,,,,,ASW,ASW-03
IN,RGI50-14.14270,9935,WESTERN HIMALAYA,LAHAUL SPITI,32.82639,77.41652,6,3,9,,,,,ASW,ASW-03
IN,RGI50-14.14272,9540,WESTERN HIMALAYA,LAHAUL SPITI,32.81516,77.41714,6,3,9,,,,,ASW,ASW-03
IN,RGI50-14.14273,7253,WESTERN HIMALAYA,LAHAUL SPITI,32.80692,77.39055,6,3,9,,,,,ASW,ASW-03
IN,RGI50-14.14274,9698,WESTERN HIMALAYA,LAHAUL SPITI,32.7963,77.38287,6,3,9,,,,,ASW,ASW-03
IN,RGI50-14.14275,9538,WESTERN HIMALAYA,LAHAUL SPITI,32.79582,77.37885,6,3,9,,,,,ASW,ASW-03
IN,RGI50-14.14276,9533,WESTERN HIMALAYA,LAHAUL SPITI,32.78521,77.39974,6,3,9,,,,,ASW,ASW-03
IN,RGI50-14.14277,9880,WESTERN HIMALAYA,LAHAUL SPITI,32.78997,77.40602,6,3,9,,,,,ASW,ASW-03
IN,RGI50-14.14278,7208,WESTERN HIMALAYA,LAHAUL SPITI,32.79348,77.39352,6,3,9,,,,,ASW,ASW-03
IN,RGI50-14.14279,9460,WESTERN HIMALAYA,LAHAUL SPITI,32.77792,77.40257,6,3,9,,,,,ASW,ASW-03
IN,RGI50-14.14280,7324,WESTERN HIMALAYA,LAHAUL SPITI,32.81068,77.35932,6,3,9,,,,,ASW,ASW-03
IN,RGI50-14.14281,6874,WESTERN HIMALAYA,LAHAUL SPITI,32.80952,77.34943,6,3,9,,,,,ASW,ASW-03
IN,RGI50-14.14300,10163,WESTERN HIMALAYA,LAHAUL SPITI,32.76838,77.30011,6,3,9,,,,,ASW,ASW-03
IN,RGI50-14.14301,9712,WESTERN HIMALAYA,LAHAUL SPITI,32.77047,77.31305,6,3,9,,,,,ASW,ASW-03
IN,RGI50-14.14302,9830,WESTERN HIMALAYA,LAHAUL SPITI,32.76016,77.30447,6,3,9,,,,,ASW,ASW-03
IN,RGI50-14.14303,10240,WESTERN HIMALAYA,LAHAUL SPITI,32.75924,77.30869,6,3,9,,,,,ASW,ASW-03
IN,RGI50-14.14304,9782,WESTERN HIMALAYA,LAHAUL SPITI,32.75937,77.34152,6,3,9,,,,,ASW,ASW-03
IN,RGI50-14.14305,9682,WESTERN HIMALAYA,LAHAUL SPITI,32.74716,77.3601,6,3,9,,,,,ASW,ASW-03
IN,RGI50-14.14306,10043,WESTERN HIMALAYA,LAHAUL SPITI,32.75838,77.52126,6,3,9,,,,,ASW,ASW-03
IN,RGI50-14.14307,10262,WESTERN HIMALAYA,LAHAUL SPITI,32.74556,77.52803,6,3,9,,,,,ASW,ASW-03
IN,RGI50-14.14308,9525,WESTERN HIMALAYA,LAHAUL SPITI,32.76482,77.32108,6,3,9,,,,,ASW,ASW-03
IN,RGI50-14.14309,7366,WESTERN HIMALAYA,LAHAUL SPITI,32.74628,77.35189,6,3,9,,,,,ASW,ASW-03
IN,RGI50-14.14310,9863,WESTERN HIMALAYA,LAHAUL SPITI,32.75282,77.34032,6,3,9,,,,,ASW,ASW-03
IN,RGI50-14.14312,9564,WESTERN HIMALAYA,LAHAUL SPITI,32.7399,77.38553,6,3,9,,,,,ASW,ASW-03
IN,RGI50-14.14313,7276,WESTERN HIMALAYA,LAHAUL SPITI,32.73478,77.36548,6,3,9,,,,,ASW,ASW-03
IN,RGI50-14.14314,7068,WESTERN HIMALAYA,LAHAUL SPITI,32.70599,77.37895,6,3,9,,,,,ASW,ASW-03
IN,RGI50-14.14315,7400,WESTERN HIMALAYA,LAHAUL SPITI,32.71952,77.36071,6,3,9,,,,,ASW,ASW-03
IN,RGI50-14.14316,10268,WESTERN HIMALAYA,LAHAUL SPITI,32.71483,77.36662,6,3,9,,,,,ASW,ASW-03
IN,RGI50-14.14317,7319,WESTERN HIMALAYA,LAHAUL SPITI,32.72127,77.37271,6,3,9,,,,,ASW,ASW-03
IN,RGI50-14.14318,9545,WESTERN HIMALAYA,LAHAUL SPITI,32.71429,77.37552,6,3,9,,,,,ASW,ASW-03
IN,RGI50-14.14319,7285,WESTERN HIMALAYA,LAHAUL SPITI,32.71591,77.38754,6,3,9,,,,,ASW,ASW-03
IN,RGI50-14.14320,9472,WESTERN HIMALAYA,LAHAUL SPITI,32.70599,77.40857,6,3,9,,,,,ASW,ASW-03
IN,RGI50-14.14321,7274,WESTERN HIMALAYA,LAHAUL SPITI,32.71113,77.39989,6,3,9,,,,,ASW,ASW-03
IN,RGI50-14.14322,9881,WESTERN HIMALAYA,LAHAUL SPITI,32.73239,77.38179,6,3,9,,,,,ASW,ASW-03
IN,RGI50-14.14323,6988,WESTERN HIMALAYA,LAHAUL SPITI,32.7336,77.37772,6,3,9,,,,,ASW,ASW-03
IN,RGI50-14.14324,9552,WESTERN HIMALAYA,LAHAUL SPITI,32.73936,77.39767,6,3,9,,,,,ASW,ASW-03
IN,RGI50-14.14887,10172,WESTERN HIMALAYA,LAHAUL SPITI,32.79119,77.21083,6,3,9,,,,,ASW,ASW-03
IN,RGI50-14.14888,7202,WESTERN HIMALAYA,LAHAUL SPITI,32.79454,77.18759,6,3,9,,,,,ASW,ASW-03
IN,RGI50-14.14894,10040,WESTERN HIMALAYA,LAHAUL SPITI,32.70457,77.28671,6,3,9,,,,,ASW,ASW-03
IN,RGI50-14.14895,7004,WESTERN HIMALAYA,LAHAUL SPITI,32.69794,77.27657,6,3,9,,,,,ASW,ASW-03
IN,RGI50-14.14896,10105,WESTERN HIMALAYA,LAHAUL SPITI,32.69444,77.26391,6,3,9,,,,,ASW,ASW-03
IN,RGI50-14.14897,6913,WESTERN HIMALAYA,LAHAUL SPITI,32.68251,77.28307,6,3,9,,,,,ASW,ASW-03
IN,RGI50-14.14898,7223,WESTERN HIMALAYA,LAHAUL SPITI,32.67189,77.29037,6,3,9,,,,,ASW,ASW-03
IN,RGI50-14.14899,10274,WESTERN HIMALAYA,LAHAUL SPITI,32.66139,77.30128,6,3,9,,,,,ASW,ASW-03
IN,RGI50-14.14900,10114,WESTERN HIMALAYA,LAHAUL SPITI,32.65676,77.29584,6,3,9,,,,,ASW,ASW-03
IN,RGI50-14.14901,9668,WESTERN HIMALAYA,LAHAUL SPITI,32.64952,77.30318,6,3,9,,,,,ASW,ASW-03
IN,RGI50-14.14902,7055,WESTERN HIMALAYA,LAHAUL SPITI,32.64796,77.339,6,3,9,,,,,ASW,ASW-03
IN,RGI50-14.14903,10189,WESTERN HIMALAYA,LAHAUL SPITI,32.64132,77.3504,6,3,9,,,,,ASW,ASW-03
IN,RGI50-14.14904,7395,WESTERN HIMALAYA,LAHAUL SPITI,32.64106,77.36684,6,3,9,,,,,ASW,ASW-03
IN,RGI50-14.14905,7146,WESTERN HIMALAYA,LAHAUL SPITI,32.61963,77.36543,6,2,9,,,,,ASW,ASW-03
IN,RGI50-14.14907,6918,WESTERN HIMALAYA,LAHAUL SPITI,32.60647,77.39003,6,3,9,,,,,ASW,ASW-03
IN,RGI50-14.14908,7070,WESTERN HIMALAYA,LAHAUL SPITI,32.68916,77.28312,6,3,9,,,,,ASW,ASW-03
IN,RGI50-14.14909,7194,WESTERN HIMALAYA,LAHAUL SPITI,32.70255,77.30205,6,3,9,,,,,ASW,ASW-03
IN,RGI50-14.14910,7166,WESTERN HIMALAYA,LAHAUL SPITI,32.69859,77.32912,6,2,9,,,,,ASW,ASW-03
IN,RGI50-14.14911,10083,WESTERN HIMALAYA,LAHAUL SPITI,32.68127,77.30677,6,3,9,,,,,ASW,ASW-03
IN,RGI50-14.14912,10141,WESTERN HIMALAYA,LAHAUL SPITI,32.68243,77.31097,6,3,9,,,,,ASW,ASW-03
IN,RGI50-14.14913,10233,WESTERN HIMALAYA,LAHAUL SPITI,32.66658,77.32005,6,2,9,,,,,ASW,ASW-03
IN,RGI50-14.14914,6937,WESTERN HIMALAYA,LAHAUL SPITI,32.654,77.36636,6,3,9,,,,,ASW,ASW-03
IN,RGI50-14.14915,10058,WESTERN HIMALAYA,LAHAUL SPITI,32.67389,77.43118,6,3,9,,,,,ASW,ASW-03
IN,RGI50-14.14916,10028,WESTERN HIMALAYA,LAHAUL SPITI,32.65633,77.41603,6,3,9,,,,,ASW,ASW-03
IN,RGI50-14.14917,9502,WESTERN HIMALAYA,LAHAUL SPITI,32.67212,77.4231,6,3,9,,,,,ASW,ASW-03
IN,RGI50-14.14918,9475,WESTERN HIMALAYA,LAHAUL SPITI,32.66809,77.41695,6,3,9,,,,,ASW,ASW-03
IN,RGI50-14.14919,10146,WESTERN HIMALAYA,LAHAUL SPITI,32.68492,77.35225,6,3,9,,,,,ASW,ASW-03
IN,RGI50-14.14920,7122,WESTERN HIMALAYA,LAHAUL SPITI,32.67078,77.37604,6,2,9,,,,,ASW,ASW-03
IN,RGI50-14.14921,9913,WESTERN HIMALAYA,LAHAUL SPITI,32.65687,77.38031,6,3,9,,,,,ASW,ASW-03
IN,RGI50-14.14922,6883,WESTERN HIMALAYA,LAHAUL SPITI,32.63633,77.42187,6,3,9,,,,,ASW,ASW-03
IN,RGI50-14.14923,6897,WESTERN HIMALAYA,LAHAUL SPITI,32.64111,77.39391,6,3,9,,,,,ASW,ASW-03
IN,RGI50-14.14924,7007,WESTERN HIMALAYA,LAHAUL SPITI,32.64514,77.39832,6,3,9,,,,,ASW,ASW-03
IN,RGI50-14.14925,7151,WESTERN HIMALAYA,LAHAUL SPITI,32.63876,77.41539,6,2,9,,,,,ASW,ASW-03
IN,RGI50-14.14926,9550,WESTERN HIMALAYA,LAHAUL SPITI,32.69434,77.3494,6,3,9,,,,,ASW,ASW-03
IN,RGI50-14.14927,9611,WESTERN HIMALAYA,LAHAUL SPITI,32.64439,77.43655,6,3,9,,,,,ASW,ASW-03
IN,RGI50-14.14928,9474,WESTERN HIMALAYA,LAHAUL SPITI,32.63742,77.44026,6,3,9,,,,,ASW,ASW-03
IN,RGI50-14.14929,9459,WESTERN HIMALAYA,LAHAUL SPITI,32.62942,77.43112,6,3,9,,,,,ASW,ASW-03
IN,RGI50-14.14930,6872,WESTERN HIMALAYA,LAHAUL SPITI,32.62735,77.42041,6,3,9,,,,,ASW,ASW-03
IN,RGI50-14.14931,10026,WESTERN HIMALAYA,LAHAUL SPITI,32.62498,77.42442,6,3,9,,,,,ASW,ASW-03
IN,RGI50-14.14932,9832,WESTERN HIMALAYA,LAHAUL SPITI,32.61366,77.45171,6,3,9,,,,,ASW,ASW-03
IN,RGI50-14.14933,7376,WESTERN HIMALAYA,LAHAUL SPITI,32.60778,77.45491,6,3,9,,,,,ASW,ASW-03
IN,RGI50-14.14934,10273,WESTERN HIMALAYA,LAHAUL SPITI,32.61813,77.4101,6,3,9,,,,,ASW,ASW-03
IN,RGI50-14.14935,10044,WESTERN HIMALAYA,LAHAUL SPITI,32.61649,77.41705,6,3,9,,,,,ASW,ASW-03
IN,RGI50-14.14936,7291,WESTERN HIMALAYA,LAHAUL SPITI,32.57726,77.41924,6,3,9,,,,,ASW,ASW-03
IN,RGI50-14.14937,9653,WESTERN HIMALAYA,LAHAUL SPITI,32.58398,77.43371,6,3,9,,,,,ASW,ASW-03
IN,RGI50-14.14938,10279,WESTERN HIMALAYA,LAHAUL SPITI,32.56957,77.31617,6,3,9,,,,,ASW,ASW-03
IN,RGI50-14.14939,7396,WESTERN HIMALAYA,LAHAUL SPITI,32.59486,77.36742,6,3,9,,,,,ASW,ASW-03
IN,RGI50-14.14940,6977,WESTERN HIMALAYA,LAHAUL SPITI,32.58781,77.39172,6,3,9,,,,,ASW,ASW-03
IN,RGI50-14.14941,7026,WESTERN HIMALAYA,LAHAUL SPITI,32.57812,77.40456,6,3,9,,,,,ASW,ASW-03
IN,RGI50-14.14942,7140,WESTERN HIMALAYA,LAHAUL SPITI,32.60476,77.4225,6,2,9,,,,,ASW,ASW-03
IN,RGI50-14.14943,10153,WESTERN HIMALAYA,LAHAUL SPITI,32.56105,77.33022,6,3,9,,,,,ASW,ASW-03
IN,RGI50-14.14944,7118,WESTERN HIMALAYA,LAHAUL SPITI,32.55416,77.36754,6,2,9,,,,,ASW,ASW-03
IN,RGI50-14.14945,10291,WESTERN HIMALAYA,LAHAUL SPITI,32.6023,77.38316,6,3,9,,,,,ASW,ASW-03
IN,RGI50-14.14946,7284,WESTERN HIMALAYA,LAHAUL SPITI,32.59626,77.38796,6,3,9,,,,,ASW,ASW-03
IN,RGI50-14.14947,9728,WESTERN HIMALAYA,LAHAUL SPITI,32.58715,77.40131,6,3,9,,,,,ASW,ASW-03
IN,RGI50-14.14948,7115,WESTERN HIMALAYA,LAHAUL SPITI,32.56356,77.43896,6,2,9,,,,,ASW,ASW-03
IN,RGI50-14.14949,7201,WESTERN HIMALAYA,LAHAUL SPITI,32.56306,77.56532,6,3,9,,,,,ASW,ASW-03
IN,RGI50-14.14950,6901,WESTERN HIMALAYA,LAHAUL SPITI,32.54,77.40659,6,3,9,,,,,ASW,ASW-03
IN,RGI50-14.14951,6880,WESTERN HIMALAYA,LAHAUL SPITI,32.56115,77.38199,6,3,9,,,,,ASW,ASW-03
IN,RGI50-14.14952,9620,WESTERN HIMALAYA,LAHAUL SPITI,32.55865,77.39629,6,3,9,,,,,ASW,ASW-03
IN,RGI50-14.14953,9702,WESTERN HIMALAYA,LAHAUL SPITI,32.55641,77.392,6,3,9,,,,,ASW,ASW-03
IN,RGI50-14.14954,6873,WESTERN HIMALAYA,LAHAUL SPITI,32.55849,77.38855,6,3,9,,,,,ASW,ASW-03
IN,RGI50-14.14955,9842,WESTERN HIMALAYA,LAHAUL SPITI,32.56021,77.31252,6,3,9,,,,,ASW,ASW-03
IN,RGI50-14.14956,6915,WESTERN HIMALAYA,LAHAUL SPITI,32.55297,77.31099,6,3,9,,,,,ASW,ASW-03
IN,RGI50-14.14957,9490,WESTERN HIMALAYA,LAHAUL SPITI,32.53755,77.49565,6,3,9,,,,,ASW,ASW-03
IN,RGI50-14.14958,7383,WESTERN HIMALAYA,LAHAUL SPITI,32.55813,77.48666,6,3,9,,,,,ASW,ASW-03
IN,RGI50-14.14959,7244,WESTERN HIMALAYA,LAHAUL SPITI,32.54428,77.4842,6,3,9,,,,,ASW,ASW-03
IN,RGI50-14.14960,6941,WESTERN HIMALAYA,LAHAUL SPITI,32.53486,77.43839,6,3,9,,,,,ASW,ASW-03
IN,RGI50-14.14961,10264,WESTERN HIMALAYA,LAHAUL SPITI,32.53968,77.41528,6,3,9,,,,,ASW,ASW-03
IN,RGI50-14.14962,7184,WESTERN HIMALAYA,LAHAUL SPITI,32.53109,77.46179,6,3,9,,,,,ASW,ASW-03
IN,RGI50-14.14963,7171,WESTERN HIMALAYA,LAHAUL SPITI,32.56519,77.47249,6,2,9,,,,,ASW,ASW-03
IN,RGI50-14.14964,6851,WESTERN HIMALAYA,LAHAUL SPITI,32.56948,77.45584,6,3,9,,,,,ASW,ASW-03
IN,RGI50-14.14992,7296,WESTERN HIMALAYA,LAHAUL SPITI,32.75866,76.9689,6,3,9,,,,,ASW,ASW-03
IN,RGI50-14.14997,10284,WESTERN HIMALAYA,LAHAUL SPITI,32.75026,76.92088,6,3,9,,,,,ASW,ASW-03
IN,RGI50-14.14999,10224,WESTERN HIMALAYA,LAHAUL SPITI,32.7263,76.98129,6,3,9,,,,,ASW,ASW-03
IN,RGI50-14.15000,10214,WESTERN HIMALAYA,LAHAUL SPITI,32.72098,76.96888,6,3,9,,,,,ASW,ASW-03
IN,RGI50-14.15001,10078,WESTERN HIMALAYA,LAHAUL SPITI,32.7238,77.01007,6,3,9,,,,,ASW,ASW-03
IN,RGI50-14.15002,9675,WESTERN HIMALAYA,LAHAUL SPITI,32.71864,76.94941,6,3,9,,,,,ASW,ASW-03
IN,RGI50-14.15003,10331,WESTERN HIMALAYA,LAHAUL SPITI,32.7174,76.96077,6,3,9,,,,,ASW,ASW-03
IN,RGI50-14.15004,9917,WESTERN HIMALAYA,LAHAUL SPITI,32.7182,76.94553,6,3,9,,,,,ASW,ASW-03
IN,RGI50-14.15005,10323,WESTERN HIMALAYA,LAHAUL SPITI,32.71507,76.95775,6,3,9,,,,,ASW,ASW-03
IN,RGI50-14.15006,10229,WESTERN HIMALAYA,LAHAUL SPITI,32.73426,76.99418,6,2,9,,,,,ASW,ASW-03
IN,RGI50-14.15007,10297,WESTERN HIMALAYA,LAHAUL SPITI,32.75296,76.979,6,3,9,,,,,ASW,ASW-03
IN,RGI50-14.15008,7125,WESTERN HIMALAYA,LAHAUL SPITI,32.7576,77.02145,6,2,9,,,,,ASW,ASW-03
IN,RGI50-14.15009,10337,WESTERN HIMALAYA,LAHAUL SPITI,32.73512,76.90459,6,3,9,,,,,ASW,ASW-03
IN,RGI50-14.15010,10228,WESTERN HIMALAYA,LAHAUL SPITI,32.71253,76.92292,6,2,9,,,,,ASW,ASW-03
IN,RGI50-14.15011,10232,WESTERN HIMALAYA,LAHAUL SPITI,32.74187,76.94431,6,2,9,,,,,ASW,ASW-03
IN,RGI50-14.15012,10119,WESTERN HIMALAYA,LAHAUL SPITI,32.70011,76.99026,6,3,9,,,,,ASW,ASW-03
IN,RGI50-14.15013,10175,WESTERN HIMALAYA,LAHAUL SPITI,32.70767,76.98896,6,3,9,,,,,ASW,ASW-03
IN,RGI50-14.15014,7009,WESTERN HIMALAYA,LAHAUL SPITI,32.70134,76.97364,6,3,9,,,,,ASW,ASW-03
IN,RGI50-14.15015,9487,WESTERN HIMALAYA,LAHAUL SPITI,32.69244,76.97147,6,3,9,,,,,ASW,ASW-03
IN,RGI50-14.15016,10161,WESTERN HIMALAYA,LAHAUL SPITI,32.69271,76.98579,6,3,9,,,,,ASW,ASW-03
IN,RGI50-14.15017,10204,WESTERN HIMALAYA,LAHAUL SPITI,32.68169,76.9894,6,3,9,,,,,ASW,ASW-03
IN,RGI50-14.15018,7315,WESTERN HIMALAYA,LAHAUL SPITI,32.6825,76.9706,6,3,9,,,,,ASW,ASW-03
IN,RGI50-14.15019,9936,WESTERN HIMALAYA,LAHAUL SPITI,32.67834,76.96564,6,3,9,,,,,ASW,ASW-03
IN,RGI50-14.15020,10271,WESTERN HIMALAYA,LAHAUL SPITI,32.67632,76.96161,6,3,9,,,,,ASW,ASW-03
IN,RGI50-14.15045,7197,WESTERN HIMALAYA,LAHAUL SPITI,32.77193,77.05747,6,3,9,,,,,ASW,ASW-03
IN,RGI50-14.15046,10136,WESTERN HIMALAYA,LAHAUL SPITI,32.77573,77.07582,6,3,9,,,,,ASW,ASW-03
IN,RGI50-14.15047,10220,WESTERN HIMALAYA,LAHAUL SPITI,32.70652,77.07653,6,3,9,,,,,ASW,ASW-03
IN,RGI50-14.15048,10234,WESTERN HIMALAYA,LAHAUL SPITI,32.69129,77.0524,6,2,9,,,,,ASW,ASW-03
IN,RGI50-14.15049,10236,WESTERN HIMALAYA,LAHAUL SPITI,32.72554,77.06435,6,2,9,,,,,ASW,ASW-03
IN,RGI50-14.15050,7364,WESTERN HIMALAYA,LAHAUL SPITI,32.6418,77.05565,6,3,9,,,,,ASW,ASW-03
IN,RGI50-14.15051,7333,WESTERN HIMALAYA,LAHAUL SPITI,32.68725,77.07636,6,3,9,,,,,ASW,ASW-03
IN,RGI50-14.15052,10196,WESTERN HIMALAYA,LAHAUL SPITI,32.70988,77.03579,6,3,9,,,,,ASW,ASW-03
IN,RGI50-14.15053,10221,WESTERN HIMALAYA,LAHAUL SPITI,32.72614,77.04104,6,3,9,,,,,ASW,ASW-03
IN,RGI50-14.15054,10258,WESTERN HIMALAYA,LAHAUL SPITI,32.73238,77.0238,6,3,9,,,,,ASW,ASW-03
IN,RGI50-14.15056,10287,WESTERN HIMALAYA,LAHAUL SPITI,32.68767,77.03513,6,3,9,,,,,ASW,ASW-03
IN,RGI50-14.15057,9878,WESTERN HIMALAYA,LAHAUL SPITI,32.68357,77.04218,6,3,9,,,,,ASW,ASW-03
IN,RGI50-14.15058,10280,WESTERN HIMALAYA,LAHAUL SPITI,32.68029,77.03699,6,3,9,,,,,ASW,ASW-03
IN,RGI50-14.15059,10250,WESTERN HIMALAYA,LAHAUL SPITI,32.67677,77.03789,6,3,9,,,,,ASW,ASW-03
IN,RGI50-14.15060,9979,WESTERN HIMALAYA,LAHAUL SPITI,32.66682,77.06035,6,3,9,,,,,ASW,ASW-03
IN,RGI50-14.15061,10260,WESTERN HIMALAYA,LAHAUL SPITI,32.66383,77.05589,6,3,9,,,,,ASW,ASW-03
IN,RGI50-14.15062,9926,WESTERN HIMALAYA,LAHAUL SPITI,32.66886,77.05092,6,3,9,,,,,ASW,ASW-03
IN,RGI50-14.15063,9982,WESTERN HIMALAYA,LAHAUL SPITI,32.67142,77.04494,6,3,9,,,,,ASW,ASW-03
IN,RGI50-14.15064,9537,WESTERN HIMALAYA,LAHAUL SPITI,32.67173,77.05509,6,3,9,,,,,ASW,ASW-03
IN,RGI50-14.15065,7399,WESTERN HIMALAYA,LAHAUL SPITI,32.66274,77.06685,6,3,9,,,,,ASW,ASW-03
IN,RGI50-14.15066,7325,WESTERN HIMALAYA,LAHAUL SPITI,32.65303,77.06778,6,3,9,,,,,ASW,ASW-03
IN,RGI50-14.15067,6963,WESTERN HIMALAYA,LAHAUL SPITI,32.6274,77.0471,6,3,9,,,,,ASW,ASW-03
IN,RGI50-14.15068,10320,WESTERN HIMALAYA,LAHAUL SPITI,32.63413,77.0581,6,3,9,,,,,ASW,ASW-03
IN,RGI50-14.15069,7257,WESTERN HIMALAYA,LAHAUL SPITI,32.65294,77.08479,6,3,9,,,,,ASW,ASW-03
IN,RGI50-14.15070,6906,WESTERN HIMALAYA,LAHAUL SPITI,32.65961,77.09231,6,3,9,,,,,ASW,ASW-03
IN,RGI50-14.15071,9818,WESTERN HIMALAYA,LAHAUL SPITI,32.66119,77.09525,6,3,9,,,,,ASW,ASW-03
IN,RGI50-14.15072,9703,WESTERN HIMALAYA,LAHAUL SPITI,32.66261,77.11575,6,3,9,,,,,ASW,ASW-03
IN,RGI50-14.15073,9589,WESTERN HIMALAYA,LAHAUL SPITI,32.66514,77.12428,6,3,9,,,,,ASW,ASW-03
IN,RGI50-14.15074,9986,WESTERN HIMALAYA,LAHAUL SPITI,32.56666,77.24091,6,3,9,,,,,ASW,ASW-03
IN,RGI50-14.15075,9987,WESTERN HIMALAYA,LAHAUL SPITI,32.58025,77.21098,6,3,9,,,,,ASW,ASW-03
IN,RGI50-14.15076,7247,WESTERN HIMALAYA,LAHAUL SPITI,32.58197,77.22355,6,3,9,,,,,ASW,ASW-03
IN,RGI50-14.15077,10086,WESTERN HIMALAYA,LAHAUL SPITI,32.56767,77.21748,6,3,9,,,,,ASW,ASW-03
IN,RGI50-14.15078,7091,WESTERN HIMALAYA,LAHAUL SPITI,32.56676,77.25141,6,3,9,,,,,ASW,ASW-03
IN,RGI50-14.15079,9548,WESTERN HIMALAYA,LAHAUL SPITI,32.59137,77.18478,6,3,9,,,,,ASW,ASW-03
IN,RGI50-14.15169,10067,WESTERN HIMALAYA,LAHAUL SPITI,32.60656,77.35886,6,3,9,,,,,ASW,ASW-03
IN,RGI50-14.15174,9877,WESTERN HIMALAYA,LAHAUL SPITI,32.16812,77.73447,6,3,9,,,,,ASW,ASW-03
IN,RGI50-14.15175,7050,WESTERN HIMALAYA,LAHAUL SPITI,32.13969,77.75611,6,3,9,,,,,ASW,ASW-03
IN,RGI50-14.15176,9580,WESTERN HIMALAYA,LAHAUL SPITI,31.88587,77.53095,6,3,9,,,,,ASW,ASW-03
IN,RGI50-14.15177,10124,WESTERN HIMALAYA,LAHAUL SPITI,31.94159,77.527,6,3,9,,,,,ASW,ASW-03
IN,RGI50-14.15189,7344,WESTERN HIMALAYA,LAHAUL SPITI,32.5525,77.23861,6,3,9,,,,,ASW,ASW-03
IN,RGI50-14.15190,9897,WESTERN HIMALAYA,LAHAUL SPITI,32.55099,77.22401,6,3,9,,,,,ASW,ASW-03
IN,RGI50-14.15191,10317,WESTERN HIMALAYA,LAHAUL SPITI,32.54942,77.19149,6,3,9,,,,,ASW,ASW-03
IN,RGI50-14.15192,6952,WESTERN HIMALAYA,LAHAUL SPITI,32.5268,77.12503,6,3,9,,,,,ASW,ASW-03
IN,RGI50-14.15193,7307,WESTERN HIMALAYA,LAHAUL SPITI,32.54986,77.25308,6,3,9,,,,,ASW,ASW-03
IN,RGI50-14.15194,7273,WESTERN HIMALAYA,LAHAUL SPITI,32.53777,77.24973,6,3,9,,,,,ASW,ASW-03
IN,RGI50-14.15195,10010,WESTERN HIMALAYA,LAHAUL SPITI,32.54521,77.26794,6,3,9,,,,,ASW,ASW-03
IN,RGI50-14.15196,9572,WESTERN HIMALAYA,LAHAUL SPITI,32.53248,77.27147,6,3,9,,,,,ASW,ASW-03
IN,RGI50-14.15197,10113,WESTERN HIMALAYA,LAHAUL SPITI,32.51973,77.27508,6,3,9,,,,,ASW,ASW-03
IN,RGI50-14.15198,6974,WESTERN HIMALAYA,LAHAUL SPITI,32.54193,77.31989,6,3,9,,,,,ASW,ASW-03
IN,RGI50-14.15199,9934,WESTERN HIMALAYA,LAHAUL SPITI,32.5131,77.27645,6,3,9,,,,,ASW,ASW-03
IN,RGI50-14.15200,10160,WESTERN HIMALAYA,LAHAUL SPITI,32.52736,77.25867,6,3,9,,,,,ASW,ASW-03
IN,RGI50-14.15201,10025,WESTERN HIMALAYA,LAHAUL SPITI,32.52139,77.26231,6,3,9,,,,,ASW,ASW-03
IN,RGI50-14.15202,9896,WESTERN HIMALAYA,LAHAUL SPITI,32.51674,77.26443,6,3,9,,,,,ASW,ASW-03
IN,RGI50-14.15203,6940,WESTERN HIMALAYA,LAHAUL SPITI,32.51171,77.26759,6,3,9,,,,,ASW,ASW-03
IN,RGI50-14.15204,10108,WESTERN HIMALAYA,LAHAUL SPITI,32.5051,77.20837,6,3,9,,,,,ASW,ASW-03
IN,RGI50-14.15205,10288,WESTERN HIMALAYA,LAHAUL SPITI,32.48447,77.20762,6,3,9,,,,,ASW,ASW-03
IN,RGI50-14.15206,6975,WESTERN HIMALAYA,LAHAUL SPITI,32.47616,77.19186,6,3,9,,,,,ASW,ASW-03
IN,RGI50-14.15207,10183,WESTERN HIMALAYA,LAHAUL SPITI,32.4662,77.23067,6,3,9,,,,,ASW,ASW-03
IN,RGI50-14.15208,10285,WESTERN HIMALAYA,LAHAUL SPITI,32.47403,77.2494,6,3,9,,,,,ASW,ASW-03
IN,RGI50-14.15209,10298,WESTERN HIMALAYA,LAHAUL SPITI,32.47896,77.27175,6,3,9,,,,,ASW,ASW-03
IN,RGI50-14.15216,10134,WESTERN HIMALAYA,LAHAUL SPITI,32.2635,77.02226,6,3,9,,,,,ASW,ASW-03
IN,RGI50-14.15217,10100,WESTERN HIMALAYA,LAHAUL SPITI,32.26153,77.03163,6,3,9,,,,,ASW,ASW-03
IN,RGI50-14.15218,10154,WESTERN HIMALAYA,LAHAUL SPITI,32.27116,77.03358,6,3,9,,,,,ASW,ASW-03
IN,RGI50-14.15219,9901,WESTERN HIMALAYA,LAHAUL SPITI,32.27731,77.03716,6,3,9,,,,,ASW,ASW-03
IN,RGI50-14.15222,10050,WESTERN HIMALAYA,LAHAUL SPITI,32.33443,77.034,6,3,9,,,,,ASW,ASW-03
IN,RGI50-14.15224,6942,WESTERN HIMALAYA,LAHAUL SPITI,32.2618,77.0706,6,3,9,,,,,ASW,ASW-03
IN,RGI50-14.15225,10102,WESTERN HIMALAYA,LAHAUL SPITI,32.27731,77.0843,6,3,9,,,,,ASW,ASW-03
IN,RGI50-14.15226,9970,WESTERN HIMALAYA,LAHAUL SPITI,32.28456,77.08806,6,3,9,,,,,ASW,ASW-03
IN,RGI50-14.15227,9699,WESTERN HIMALAYA,LAHAUL SPITI,32.28905,77.09296,6,3,9,,,,,ASW,ASW-03
